{"type": "FeatureCollection", "collectionName": "KU_POMNIKI", "srs": 4326, "geodetic": true, "bbox": [20.87323, 52.12886, 21.25739, 52.33224], "attr_names": ["_label_"], "attr_types": ["string"], "edit_properties": {"id_attr": "ROWID", "base_table": "POMNIKI", "spatial_attr": "SHAPE", "spatial_type": "geometry"}, "features": [{"type": "Feature", "_id": "AAJ+WaAAAAAAN57AAA", "geometry": {"type": "Point", "coordinates": [21.02591, 52.21859]}, "properties": {"Nazwa": "pomnik Wojciecha Korfantego", "Dzielnica": "Śródmieście", "Autor": "Karol Badyna", "Odsłonięcie": "25-10-2019", "Materiał": "brąz", "Wymiary": "2,5 m", "Forma": "postać wsparta o postument", "Pochodzenie danych": "BGiK", "Aktualność danych": "maj 2020"}}, {"type": "Feature", "_id": "AAJ+WaAAAAAAN57AAB", "geometry": {"type": "Point", "coordinates": [21.02685, 52.22751]}, "properties": {"Nazwa": "pomnik Francesca Nulla", "Dzielnica": "Śródmieście", "Autor": "Ganni Remuzzi", "Odsłonięcie": "26-02-1939", "Materiał": "brąz (rzeźba), granit (cokół)", "Wymiary": "ok. 1 m wys. (rzeźba), ok. 1,5 m wys. (cokół)", "Forma": "popiersie na cokole", "Pochodzenie danych": "BGiK", "Aktualność danych": "styczeń 2015"}}, {"type": "Feature", "_id": "AAJ+WaAAAAAAN57AAC", "geometry": {"type": "Point", "coordinates": [21.01545, 52.24279]}, "properties": {"Nazwa": "pomnik Księcia Józefa Poniatowskiego", "Dzielnica": "Śródmieście", "Autor": "Bertel Thorvaldsen", "Odsłonięcie": "03-05-1923 ( na pałacu Saskim), 23-02-1952 ( na pałacu przed pomarańczarnią na terenie Łazienek Królewskich, 19-10-1965 (ustawienie na obiecnym miejscu)", "Materiał": "brąz (rzeźba), granit (cokół)", "Wymiary": "statua 4,55 m wys., 4,85 m szer., cokół ok 5 m wys.", "Forma": "postać rycerza w stroju rzymskim na koniu,", "Pochodzenie danych": "BGiK", "Aktualność danych": "styczeń 2015"}}, {"type": "Feature", "_id": "AAJ+WaAAAAAAN57AAD", "geometry": {"type": "Point", "coordinates": [20.88905, 52.1897]}, "properties": {"Nazwa": "pomnik gen. Kazimierza Sosnkowskiego", "Dzielnica": "Ursus", "Autor": "brak danych", "Odsłonięcie": " ", "Materiał": "kamień", "Wymiary": "brak danych", "Forma": "głaz", "Pochodzenie danych": "BGiK", "Aktualność danych": "styczeń 2015"}}, {"type": "Feature", "_id": "AAJ+WaAAAAAAN57AAE", "geometry": {"type": "Point", "coordinates": [20.95356, 52.2615]}, "properties": {"Nazwa": "Żbik", "Dzielnica": "Żoliborz", "Autor": "", "Odsłonięcie": "", "Materiał": "", "Wymiary": "", "Forma": "", "Pochodzenie danych": "BGiK", "Aktualność danych": "czerwiec 2017"}}, {"type": "Feature", "_id": "AAJ+WaAAAAAAN57AAF", "geometry": {"type": "Point", "coordinates": [21.03894, 52.23205]}, "properties": {"Nazwa": "Miejsce uświęcone krwią Polaków poległych za wolność Ojczyzny", "Dzielnica": "Śródmieście", "Autor": "", "Odsłonięcie": "19 lipca 1969 r.", "Materiał": "cegła, piaskowiec", "Forma": "ceglany mur oraz tablica z piaskowca", "Pochodzenie danych": "BGiK", "Aktualność danych": "lipiec 2016"}}, {"type": "Feature", "_id": "AAJ+WaAAAAAAN57AAG", "geometry": {"type": "Point", "coordinates": [20.97277, 52.22933]}, "properties": {"Nazwa": "pomnik Marcina Kasprzaka", "Dzielnica": "Wola", "Autor": "brak danych", "Odsłonięcie": "25-11-1975", "Materiał": "Granit (cokół), brąz (popiersie)", "Wymiary": "Około 5 metrów", "Forma": "popiersie na cokole", "Pochodzenie danych": "BGiK", "Aktualność danych": "styczeń 2015"}}, {"type": "Feature", "_id": "AAJ+WaAAAAAAN57AAH", "geometry": {"type": "Point", "coordinates": [20.99235, 52.25151]}, "properties": {"Nazwa": "pomnik-kopiec Mordechaja Anielewicza", "Dzielnica": "Śródmieście", "Autor": "brak danych", "Odsłonięcie": "1943", "Materiał": "brak danych", "Wymiary": "brak danych", "Forma": "brak danych", "Pochodzenie danych": "BGiK", "Aktualność danych": "styczeń 2015"}}, {"type": "Feature", "_id": "AAJ+WaAAAAAAN57AAI", "geometry": {"type": "Point", "coordinates": [21.02362, 52.22768]}, "properties": {"Nazwa": "pomnik Wincentego Witosa", "Dzielnica": "Śródmieście", "Autor": "Marian Konieczny", "Odsłonięcie": "22-09-1985", "Materiał": "brąz (rzeźba), granit (cokół i otocze pomnika)", "Wymiary": "całość ok 6 m wys., rzeźba 4,5 m wys., waga 6,5 t", "Forma": "postać na cokole z książką w jednej i kapeluszem w drugiej ręce", "Pochodzenie danych": "BGiK", "Aktualność danych": "styczeń 2015"}}, {"type": "Feature", "_id": "AAJ+WaAAAAAAN57AAJ", "geometry": {"type": "Point", "coordinates": [21.01474, 52.20426]}, "properties": {"Nazwa": "pomnik Żołnierzy Kompanii K-2 Pułku AK „Baszta” poległych w Powstaniu Warszawskim 1944 r.", "Dzielnica": "Mokotów", "Autor": "brak danych", "Odsłonięcie": "14-08-1994", "Materiał": "brak danych", "Wymiary": "brak danych", "Forma": "Tablice umieszczone na prostopadłościanowej bryle, z oznaczeniami Polski Walczącej", "Pochodzenie danych": "BGiK", "Aktualność danych": "styczeń 2015"}}, {"type": "Feature", "_id": "AAJ+WaAAAAAAN57AAK", "geometry": {"type": "Point", "coordinates": [21.02358, 52.22856]}, "properties": {"Nazwa": "pomnik Wandy Tazbir", "Dzielnica": "Śródmieście", "Autor": "brak danych", "Odsłonięcie": "21-10-2007", "Materiał": "Sztuczny kamień (rzeźba cokół)", "Wymiary": "brak danych", "Forma": "Postać siedzącą na kamiennej ławeczce", "Pochodzenie danych": "BGiK", "Aktualność danych": "styczeń 2015"}}, {"type": "Feature", "_id": "AAJ+WaAAAAAAN58AAA", "geometry": {"type": "Point", "coordinates": [20.95708, 52.23817]}, "properties": {"Nazwa": "monolit Miejsce uświęcone krwią Polaków poległych za wolność Ojczyzny", "Dzielnica": "Wola", "Autor": "brak danych", "Odsłonięcie": "1945 - pierwsze upamiętnienie ofiar, 5-08-2014 - odsłonięcie pomnika po rozbudowie do aktualnej formy", "Materiał": "brak danych", "Wymiary": "brak danych", "Forma": "Tablice, ściana z reliefem, krzyż", "Pochodzenie danych": "BGiK", "Aktualność danych": "styczeń 2015"}}, {"type": "Feature", "_id": "AAJ+WaAAAAAAN58AAB", "geometry": {"type": "Point", "coordinates": [21.02628, 52.22176]}, "properties": {"Nazwa": "rzeźba Ewa", "Dzielnica": "Śródmieście", "Autor": "Edwart Wittig", "Odsłonięcie": "1930", "Materiał": "brak danych", "Wymiary": "brak danych", "Forma": "brak danych", "Pochodzenie danych": "BGiK", "Aktualność danych": "styczeń 2015"}}, {"type": "Feature", "_id": "AAJ+WaAAAAAAN58AAC", "geometry": {"type": "Point", "coordinates": [21.03253, 52.25829]}, "properties": {"Nazwa": "pomnik Janusza Groszkowskiego", "Dzielnica": "Praga-Północ", "Autor": "Janusz Pastwa", "Odsłonięcie": "1988", "Materiał": "brąz (rzeźba), granit (cokół)", "Wymiary": "ok. 80 cm (rzeźba), 1,65 m wys. (cokół)", "Forma": "popiersie na cokole", "Pochodzenie danych": "BGiK", "Aktualność danych": "styczeń 2015"}}, {"type": "Feature", "_id": "AAJ+WaAAAAAAN58AAD", "geometry": {"type": "Point", "coordinates": [21.02699, 52.21562]}, "properties": {"Nazwa": "pomnik Henryka Sienkiewicza", "Dzielnica": "Śródmieście", "Autor": "Gustaw Zemła", "Odsłonięcie": "05-05-2000", "Materiał": "brąz (rzeźba), sjenit (cokół)", "Wymiary": "2,5 m wys. (rzeźba), 1,5 m wys. (cokół)", "Forma": "postać siedząca na cokole", "Pochodzenie danych": "BGiK", "Aktualność danych": "styczeń 2015"}}, {"type": "Feature", "_id": "AAJ+WaAAAAAAN58AAE", "geometry": {"type": "Point", "coordinates": [20.98611, 52.2637]}, "properties": {"Nazwa": "pomnik rotmistrza Witolda Pileckiego", "Dzielnica": "Żoliborz", "Autor": "Jacek Kicińskiegi, Rafał Stachowicz", "Odsłonięcie": "13-05-2017", "Materiał": "granit", "Wymiary": "", "Forma": "granitowy sześcian z pęknięciem na całej wysokości  w którym umiejscowiona jest brązowa postać rotmistrza Pileckiego", "Pochodzenie danych": "BGiK", "Aktualność danych": "maj 2017"}}, {"type": "Feature", "_id": "AAJ+WaAAAAAAN58AAF", "geometry": {"type": "Point", "coordinates": [21.08904, 52.26054]}, "properties": {"Nazwa": "monolit upamiętniający", "Dzielnica": "Targówek", "Autor": "", "Odsłonięcie": "", "Materiał": "", "Wymiary": "", "Forma": "monolit upamiętniający miejsce zamordowania przez okupanta sześciuset Żydów", "Pochodzenie danych": "BGiK", "Aktualność danych": "lipiec 2016"}}, {"type": "Feature", "_id": "AAJ+WaAAAAAAN58AAG", "geometry": {"type": "Point", "coordinates": [20.96591, 52.21819]}, "properties": {"Nazwa": "głaz pamięci przy Dworcu Zachodnim poświęcony zabitym więźniom Pawiaka w dniu 17 listopada 1943 r.", "Dzielnica": "Ochota", "Autor": "", "Odsłonięcie": "18-XI-2002", "Materiał": "granit", "Wymiary": "", "Forma": "obelisk granitowy na postumencie", "Pochodzenie danych": "BGiK", "Aktualność danych": "maj 2017"}}, {"type": "Feature", "_id": "AAJ+WaAAAAAAN58AAH", "geometry": {"type": "Point", "coordinates": [20.9922, 52.26413]}, "properties": {"Nazwa": "pomnik 1 Dywizji Pancernej", "Dzielnica": "Żoliborz", "Autor": "Jerzy Sikorski (kolumna), Andrzej Kiciński (otoczenie pomnika)", "Odsłonięcie": "30-09-1995", "Materiał": "granit (klomna, obudowa basenu), brąz (orzeł i emblemanty wieńczące kolumnę)", "Wymiary": "12 m wys. (kolumna)", "Forma": "granitowa kolumna na cokole, z wyrytymi nazwami miast, u góry szyszak, skrzydła husarskie i fragment gąsienicy czołgu, 1/3 wys. orzeł w koronie z rozpostartymi skrzydłami", "Pochodzenie danych": "BGiK", "Aktualność danych": "styczeń 2015"}}, {"type": "Feature", "_id": "AAJ+WaAAAAAAN58AAI", "geometry": {"type": "Point", "coordinates": [20.99682, 52.22527]}, "properties": {"Nazwa": "pomnik Pamięci zmarłych w szpitalu Dzieciątka Jezus", "Dzielnica": "Ochota", "Autor": "nieznany", "Odsłonięcie": "ustawienie-1797, przeniesienie - 1901", "Materiał": "piaskowiec (obelisk), żeliwo (krzyż i ogrodzenie)", "Wymiary": "ok. 3 m wys.", "Forma": "obelisk z krzyżem ogrodzony stylizowanym metalowym płotkiem", "Pochodzenie danych": "BGiK", "Aktualność danych": "styczeń 2015"}}, {"type": "Feature", "_id": "AAJ+WaAAAAAAN58AAJ", "geometry": {"type": "Point", "coordinates": [21.01797, 52.23816]}, "properties": {"Nazwa": "pomnik Mikołaja Kopernika", "Dzielnica": "Śródmieście", "Autor": "Bertel Thorvaldsen (pomnik), Adam Idzikowski (cokół)", "Odsłonięcie": "11-05-1830, 22-07-1945, 22-07-1949", "Materiał": "czarny granit finlandzki", "Forma": "brak danych", "Pochodzenie danych": "BGiK", "Aktualność danych": "kwiecień 2017"}}, {"type": "Feature", "_id": "AAJ+WaAAAAAAN58AAK", "geometry": {"type": "Point", "coordinates": [21.04599, 52.16234]}, "properties": {"Nazwa": "pomnik Stanisława Staszica", "Dzielnica": "Ursynów", "Autor": "Stanisław Lipski", "Odsłonięcie": "1976", "Materiał": "granit (głaz narzutowy)", "Wymiary": "ok. 2,5 m wys.", "Forma": "głowa mężczyzny wyłaniająca się z górnej części głazu, ustawionego na płycie", "Pochodzenie danych": "BGiK", "Aktualność danych": "kwiecień 2017"}}, {"type": "Feature", "_id": "AAJ+WaAAAAAAN59AAA", "geometry": {"type": "Point", "coordinates": [21.05463, 52.23312]}, "properties": {"Nazwa": "pomnik Agnieszki Osieckiej", "Dzielnica": "Praga-Południe", "Autor": "Teresa i Dariusz Kowalscy", "Odsłonięcie": "19-05-2007", "Materiał": "brak danych", "Wymiary": "brak danych", "Forma": "postać siedząca przy kawiarnianym stoliku, patrząca prosto przed siebie", "Pochodzenie danych": "BGiK", "Aktualność danych": "styczeń 2015"}}, {"type": "Feature", "_id": "AAJ+WaAAAAAAN59AAB", "geometry": {"type": "Point", "coordinates": [20.9909, 52.24605]}, "properties": {"Nazwa": "pomnik Drzewa Pawiackiego", "Dzielnica": "Śródmieście", "Autor": "", "Odsłonięcie": "08-06-2005", "Materiał": "brąz", "Wymiary": "", "Forma": "kopia drzewa wiązu odlana w brązie z tabliczkami epitafijnymi", "Pochodzenie danych": "BGiK", "Aktualność danych": "kwiecień 2017"}}, {"type": "Feature", "_id": "AAJ+WaAAAAAAN59AAC", "geometry": {"type": "Point", "coordinates": [21.02641, 52.22516]}, "properties": {"Nazwa": "pomnik Polskiego Państwa Podziemnego i Armii Krajowej", "Dzielnica": "Śródmieście", "Autor": "Jerzy Staniszkis", "Odsłonięcie": "10-06-1999, poświęcenie 11-06-1999", "Materiał": "konstrukcja zelbetonowa obłożona płytkami włoskiego dranitu \"bianco cristal\", memoriał-granit strzegomski", "Wymiary": "32 m wys.", "Pochodzenie danych": "BGiK", "Aktualność danych": "styczeń 2015"}}, {"type": "Feature", "_id": "AAJ+WaAAAAAAN59AAD", "geometry": {"type": "Point", "coordinates": [21.03534, 52.25918]}, "properties": {"Nazwa": "pomnik płk Antoniego Władysława Żurowskiego i jego Żołnierzy", "Dzielnica": "Praga-Północ", "Autor": "brak danych", "Odsłonięcie": " ", "Materiał": "kamień", "Wymiary": "brak danych", "Forma": "Głaz z upamiętniającym napisem", "Pochodzenie danych": "BGiK", "Aktualność danych": "styczeń 2015"}}, {"type": "Feature", "_id": "AAJ+WaAAAAAAN59AAE", "geometry": {"type": "Point", "coordinates": [21.03744, 52.23272]}, "properties": {"Nazwa": "figura Świętej Barbary", "Dzielnica": "Śródmieście", "Autor": "", "Odsłonięcie": "", "Materiał": "", "Wymiary": "", "Forma": "postć Świętej Barbary na kolumnie", "Pochodzenie danych": "BGiK", "Aktualność danych": "wrzesień 2017"}}, {"type": "Feature", "_id": "AAJ+WaAAAAAAN59AAF", "geometry": {"type": "Point", "coordinates": [21.01721, 52.23414]}, "properties": {"Nazwa": "pomnik Wojciecha Górskiego", "Dzielnica": "Śródmieście", "Autor": "Władysław Szyndler", "Odsłonięcie": "1957", "Materiał": "brąz(rzeźba), granit (postumenty)", "Wymiary": "ok. 2 m wys.", "Forma": "popiersie ba cokole", "Pochodzenie danych": "BGiK", "Aktualność danych": "styczeń 2015"}}, {"type": "Feature", "_id": "AAJ+WaAAAAAAN59AAG", "geometry": {"type": "Point", "coordinates": [20.98039, 52.23122]}, "properties": {"Nazwa": "Pomnik Stefana Kuryłowicza", "Dzielnica": "Wola", "Autor": "Krzysztof Bednarski", "Odsłonięcie": "5-11-2013", "Materiał": "", "Wymiary": "brak danych", "Forma": "popiersie na cokole", "Pochodzenie danych": "Urząd Dzielnicy Wola", "Aktualność danych": "marzec 2016"}}, {"type": "Feature", "_id": "AAJ+WaAAAAAAN59AAH", "geometry": {"type": "Point", "coordinates": [20.98442, 52.26749]}, "properties": {"Nazwa": "pomnik-grób ks. Jerzego Popiełuszki", "Dzielnica": "Żoliborz", "Autor": "Jerzy Kalina (grób), Gustaw Zemła (krucyfiks)", "Odsłonięcie": "1984, 1986", "Materiał": "granit", "Wymiary": "brak danych", "Forma": "kurhan i płyta w kształcie krzyża", "Pochodzenie danych": "BGiK", "Aktualność danych": "styczeń 2015"}}, {"type": "Feature", "_id": "AAJ+WaAAAAAAN59AAI", "geometry": {"type": "Point", "coordinates": [21.03804, 52.21372]}, "properties": {"Nazwa": "pomnik Józefa Bema", "Dzielnica": "Śródmieście", "Autor": "", "Odsłonięcie": "( 1924r. ) 2004r.", "Materiał": "brąz", "Wymiary": "", "Forma": "popiersie na cokole", "Pochodzenie danych": "BGiK", "Aktualność danych": "czerwiec"}}, {"type": "Feature", "_id": "AAJ+WaAAAAAAN59AAJ", "geometry": {"type": "Point", "coordinates": [21.01703, 52.2457]}, "properties": {"Nazwa": "głaz pamięci Samuela Orgelbranda", "Dzielnica": "Śródmieście", "Autor": "", "Odsłonięcie": "październik 2010", "Materiał": "", "Wymiary": "", "Forma": "głaz ", "Pochodzenie danych": "BGiK", "Aktualność danych": "maj 2018"}}, {"type": "Feature", "_id": "AAJ+WaAAAAAAN59AAK", "geometry": {"type": "Point", "coordinates": [20.95161, 52.25838]}, "properties": {"Nazwa": "Pomnik Zgrupowania \"Harnaś\"", "Dzielnica": "Żoliborz", "Autor": "", "Odsłonięcie": "", "Materiał": "", "Wymiary": "", "Forma": "", "Pochodzenie danych": "BGiK", "Aktualność danych": "czerwiec 2017"}}, {"type": "Feature", "_id": "AAJ+WaAAAAAAN59AAL", "geometry": {"type": "Point", "coordinates": [21.03126, 52.24]}, "properties": {"Nazwa": "Pomnik dowódców obrony elektrowni ", "Dzielnica": "Śródmieście", "Autor": "Andrzej Sypniewski", "Odsłonięcie": "1977r.", "Materiał": "granit", "Wymiary": "165 cm wys. tablica – 55 x 90 cm", "Forma": "głaz z tablicą", "Pochodzenie danych": "BGiK", "Aktualność danych": "wrzesień 2017"}}, {"type": "Feature", "_id": "AAJ+WaAAAAAAN5+AAA", "geometry": {"type": "Point", "coordinates": [21.00682, 52.24908]}, "properties": {"Nazwa": "pomnik Poległych marynarzy", "Dzielnica": "Śródmieście", "Autor": "nieznany", "Odsłonięcie": "przed 1991", "Materiał": "żeliwo (kotwica i łaźcuch), brąz (tablice)", "Wymiary": "ok. 2,5 m wys.", "Forma": "kotwica i tablice", "Pochodzenie danych": "BGiK", "Aktualność danych": "styczeń 2015"}}, {"type": "Feature", "_id": "AAJ+WaAAAAAAN5+AAB", "geometry": {"type": "Point", "coordinates": [21.01397, 52.24927]}, "properties": {"Nazwa": "Dzwon", "Dzielnica": "Śródmieście", "Autor": " Daniel Thym", "Odsłonięcie": "1972 r.", "Materiał": "", "Wymiary": "", "Forma": "dzwon", "Pochodzenie danych": "BGiK", "Aktualność danych": "wrzesień 2016"}}, {"type": "Feature", "_id": "AAJ+WaAAAAAAN5+AAC", "geometry": {"type": "Point", "coordinates": [21.02594, 52.28685]}, "properties": {"Nazwa": "pomnik Jana Pawła II", "Dzielnica": "Targówek", "Autor": "", "Odsłonięcie": "2011", "Materiał": "", "Wymiary": "", "Forma": "postać papieża z siedzącym chłopcem u jego stóp na wysokim cokole zwieńczona czterema kolumienkami z daszkiem", "Pochodzenie danych": "BGiK", "Aktualność danych": "kwiecień 2017"}}, {"type": "Feature", "_id": "AAJ+WaAAAAAAN5+AAD", "geometry": {"type": "Point", "coordinates": [21.02093, 52.23225]}, "properties": {"Nazwa": "pomnik Partyzantów bojowników o Polskę Ludową", "Dzielnica": "Śródmieście", "Autor": "Wacław Kowalik (rzeźba), Stanisław Żaryn (cokół), Zygmunt Stępiński i Kazimierz Marczewski (otoczenie pomnika)", "Odsłonięcie": "13-05-1962", "Materiał": "brąz (rzeźba), granit (cokół), zmontowany z fragmętów pomnika Hindenburga z Tannenbergu", "Wymiary": "3,2 m wys.", "Forma": "postać rannego partyzanta podtrzymywanego przez kobietę, z ręką uniesioną w górę z gałązką oliwną, na cokole", "Pochodzenie danych": "BGiK", "Aktualność danych": "styczeń 2015"}}, {"type": "Feature", "_id": "AAJ+WaAAAAAAN5+AAE", "geometry": {"type": "Point", "coordinates": [21.01379, 52.23463]}, "properties": {"Nazwa": "pomnik Napoleona Bonaparte", "Dzielnica": "Śródmieście", "Odsłonięcie": "5-05-2011", "Materiał": "brak danych", "Wymiary": "ok. 4.5 m", "Forma": "popiersie na cokole", "Pochodzenie danych": "BGiK", "Aktualność danych": "styczeń 2015"}}, {"type": "Feature", "_id": "AAJ+WaAAAAAAN5+AAF", "geometry": {"type": "Point", "coordinates": [21.05222, 52.23895]}, "properties": {"Nazwa": "pomnik Polaków-Ofiar ataku terrorystycznego w Nowym Jorku z  11 IX 2001 r.", "Dzielnica": "Praga-Południe", "Autor": "nieznany", "Odsłonięcie": "11-09-2002", "Materiał": "granit, marmur", "Wymiary": "ok. 1 m wys.", "Forma": "płyta na postumencie", "Pochodzenie danych": "BGiK", "Aktualność danych": "styczeń 2015"}}, {"type": "Feature", "_id": "AAJ+WaAAAAAAN5+AAG", "geometry": {"type": "Point", "coordinates": [21.03033, 52.21218]}, "properties": {"Nazwa": "pomnik Maurycego Mochnackiego", "Dzielnica": "Śródmieście", "Autor": "Wiesław Winkler", "Odsłonięcie": "28-11-2000", "Materiał": "brąz (rzeźba), marmur (postument), piaskowiec (schody)", "Wymiary": "94 cm wys. (popiersie), ok. 4 m wys. (całość)", "Forma": "popiersie na cokole", "Pochodzenie danych": "BGiK", "Aktualność danych": "styczeń 2015"}}, {"type": "Feature", "_id": "AAJ+WaAAAAAAN5+AAH", "geometry": {"type": "Point", "coordinates": [20.95064, 52.25592]}, "properties": {"Nazwa": "Dąbrowszczacy - walczący w Hiszpanii 1936-1939", "Dzielnica": "Żoliborz", "Autor": "", "Odsłonięcie": "", "Materiał": "", "Wymiary": "", "Forma": "", "Pochodzenie danych": "BGiK", "Aktualność danych": "czerwiec 2017"}}, {"type": "Feature", "_id": "AAJ+WaAAAAAAN5+AAI", "geometry": {"type": "Point", "coordinates": [21.05627, 52.19265]}, "properties": {"Nazwa": "pomnik-głaz Żołnierzy 14 Pułku Ułanów Jazłowieckich", "Dzielnica": "Mokotów", "Autor": "brak danych", "Odsłonięcie": "2009 r.", "Materiał": "brak danych", "Wymiary": "brak danych", "Forma": "głaz na nasypie ziemnym i postumencie, na głazie tablica z napisem", "Pochodzenie danych": "BGiK", "Aktualność danych": "styczeń 2015"}}, {"type": "Feature", "_id": "AAJ+WaAAAAAAN5+AAJ", "geometry": {"type": "Point", "coordinates": [21.04685, 52.25736]}, "properties": {"Nazwa": "głaz pamięci poświęcony żołnierzom plutonu 1681 6-XXVI obwodu AK Praga organizacji „Orlęta”", "Dzielnica": "Praga-Północ", "Autor": "", "Odsłonięcie": "10-11-2002", "Materiał": "", "Wymiary": "", "Forma": "na głazie umieszczona jest tablica, na której wyryty jest napis", "Pochodzenie danych": "BGiK", "Aktualność danych": "kwiecień 2017"}}, {"type": "Feature", "_id": "AAJ+WaAAAAAAN5+AAK", "geometry": {"type": "Point", "coordinates": [21.04525, 52.21048]}, "properties": {"Nazwa": "monolit Miejsce uświęcone krwią Polaków poległych za wolność Ojczyzny", "Dzielnica": "Śródmieście", "Autor": "brak danych", "Odsłonięcie": "lata 80-te", "Materiał": "brak danych", "Wymiary": "brak danych", "Forma": "brak danych", "Pochodzenie danych": "BGiK", "Aktualność danych": "styczeń 2015"}}, {"type": "Feature", "_id": "AAJ+WaAAAAAAN5/AAA", "geometry": {"type": "Point", "coordinates": [21.08863, 52.22062]}, "properties": {"Nazwa": "pomnik gen. Emila Fieldorfa \"Nila\"", "Dzielnica": "Praga-Południe", "Autor": "Jacek Kocuba", "Odsłonięcie": "26-09-2010", "Materiał": "antracytowy granit Impala", "Wymiary": "", "Forma": "postument przedstawiający generała \"Nila\" w swoistym labiryncie prostopadłościanów, które symbolizują uwięzienie i poszukiwanie drogi do wolności.", "Pochodzenie danych": "BGiK", "Aktualność danych": "kwiecień 2017"}}, {"type": "Feature", "_id": "AAJ+WaAAAAAAN5/AAB", "geometry": {"type": "Point", "coordinates": [21.0732, 52.24576]}, "properties": {"Nazwa": "figura św. Ekspedyta", "Dzielnica": "Praga-Południe", "Autor": "", "Odsłonięcie": "", "Materiał": "", "Wymiary": "", "Forma": "figura nad bramą przedstawia Św. Ekspedyta - rzymskiego legionistę w zbroi i płaszczu, który trzyma w dłoniach krzyż i palmę, a nogą depcze kruka", "Pochodzenie danych": "BGiK", "Aktualność danych": "maj 2017"}}, {"type": "Feature", "_id": "AAJ+WaAAAAAAN5/AAC", "geometry": {"type": "Point", "coordinates": [21.02154, 52.23152]}, "properties": {"Nazwa": "pomnik Charles’a de Gaulle’a", "Dzielnica": "Śródmieście", "Autor": "Jean Cardot", "Odsłonięcie": "15-03-2005", "Materiał": "brak danych", "Wymiary": "brak danych", "Forma": "brak danych", "Pochodzenie danych": "BGiK", "Aktualność danych": "styczeń 2015"}}, {"type": "Feature", "_id": "AAJ+WaAAAAAAN5/AAD", "geometry": {"type": "Point", "coordinates": [21.02349, 52.23686]}, "properties": {"Nazwa": "pomnik Grupy Bojowej AK „Krybar”", "Dzielnica": "Śródmieście", "Autor": "brak danych", "Odsłonięcie": " ", "Materiał": "brak danych", "Wymiary": "brak danych", "Forma": "Składa się z płyt pamiątkowym, główną część pomnika jest napis KRYBAR, w dolnej części umieszczono dedykację", "Pochodzenie danych": "BGiK", "Aktualność danych": "styczeń 2015"}}, {"type": "Feature", "_id": "AAJ+WaAAAAAAN5/AAE", "geometry": {"type": "Point", "coordinates": [20.9515, 52.25828]}, "properties": {"Nazwa": "Pomnik zgrupowania AK batalion \"Gustaw\"", "Dzielnica": "Żoliborz", "Autor": "", "Odsłonięcie": "", "Materiał": "", "Wymiary": "", "Forma": "", "Pochodzenie danych": "BGiK", "Aktualność danych": "czerwiec 2017"}}, {"type": "Feature", "_id": "AAJ+WaAAAAAAN5/AAF", "geometry": {"type": "Point", "coordinates": [21.01877, 52.2403]}, "properties": {"Nazwa": "pomnik Studenta tzw. Sławek", "Dzielnica": "Śródmieście", "Autor": "Andrzej Renes", "Odsłonięcie": "10-2002", "Materiał": "brąz", "Wymiary": "1,33 m wys., 2 m dług. (ławka)", "Forma": "postać młodzieńca siedzącego na ławce", "Pochodzenie danych": "BGiK", "Aktualność danych": "styczeń 2015"}}, {"type": "Feature", "_id": "AAJ+WaAAAAAAN5/AAG", "geometry": {"type": "Point", "coordinates": [21.03563, 52.22869]}, "properties": {"Nazwa": "pomnik Słowaków walczących w Powstaniu Warszawskim", "Dzielnica": "Śródmieście", "Autor": "brak danych", "Odsłonięcie": " ", "Materiał": "kamień", "Wymiary": "brak danych", "Forma": "głaz i upamiętniająca tablica", "Pochodzenie danych": "BGiK", "Aktualność danych": "styczeń 2015"}}, {"type": "Feature", "_id": "AAJ+WaAAAAAAN5/AAH", "geometry": {"type": "Point", "coordinates": [20.99707, 52.26724]}, "properties": {"Nazwa": "pomnik Hibnera, Kniewskiego i Rutkowskiego", "Dzielnica": "Żoliborz", "Autor": "", "Odsłonięcie": "", "Materiał": "", "Wymiary": "", "Forma": "", "Pochodzenie danych": "BGiK", "Aktualność danych": "kwiecień 2017"}}, {"type": "Feature", "_id": "AAJ+WaAAAAAAN5/AAI", "geometry": {"type": "Point", "coordinates": [21.04123, 52.26983]}, "properties": {"Nazwa": "pomnik Poległych Żołnierzy AK „Rokity” i „Kruka”", "Dzielnica": "Targówek", "Autor": "brak danych", "Odsłonięcie": " ", "Materiał": "brak danych", "Wymiary": "brak danych", "Forma": "Płyta z dedykacją", "Pochodzenie danych": "BGiK", "Aktualność danych": "styczeń 2015"}}, {"type": "Feature", "_id": "AAJ+WaAAAAAAN5/AAJ", "geometry": {"type": "Point", "coordinates": [20.95104, 52.25797]}, "properties": {"Nazwa": "Strażacki Ruch Oporu \"Skała\"", "Dzielnica": "Żoliborz", "Autor": "", "Odsłonięcie": "", "Materiał": "", "Wymiary": "", "Forma": "", "Pochodzenie danych": "BGiK", "Aktualność danych": "czerwiec 2017"}}, {"type": "Feature", "_id": "AAJ+WaAAAAAAN5/AAK", "geometry": {"type": "Point", "coordinates": [21.01449, 52.21653]}, "properties": {"Nazwa": "pomnik Tysiąclecia Jazdy Polskiej", "Dzielnica": "Śródmieście", "Autor": "Mieczyslaw Naruszewicz, Marek Moderau (tablice)", "Odsłonięcie": "12-09-1994", "Materiał": "brąz (rzeźba), mosiądz (tablice), metal (kolumna)", "Wymiary": "16 m  wys.", "Forma": "na wzniesieniu, na szczycie wysokiej kolumny, grupa rzeźbiarska-dwaj jeźdźcy na koniach", "Pochodzenie danych": "BGiK", "Aktualność danych": "styczeń 2015"}}, {"type": "Feature", "_id": "AAJ+WaAAAAAAN5/AAL", "geometry": {"type": "Point", "coordinates": [21.02306, 52.20602]}, "properties": {"Nazwa": "pomnik Mieszkańców Mokotowa", "Dzielnica": "Mokotów", "Autor": "brak danych", "Odsłonięcie": " ", "Materiał": "brak danych", "Wymiary": "brak danych", "Forma": "Płyta pamiątkowa", "Pochodzenie danych": "BGiK", "Aktualność danych": "styczeń 2015"}}, {"type": "Feature", "_id": "AAJ+WaAABAANo5IAAA", "geometry": {"type": "Point", "coordinates": [20.95357, 52.26146]}, "properties": {"Nazwa": "Pamięci żołnierzy zgrupowania \"Leśnik\"", "Dzielnica": "Żoliborz", "Autor": "", "Odsłonięcie": "", "Materiał": "", "Wymiary": "", "Forma": "", "Pochodzenie danych": "BGiK", "Aktualność danych": "czerwiec 2017"}}, {"type": "Feature", "_id": "AAJ+WaAABAANo5IAAB", "geometry": {"type": "Point", "coordinates": [21.06079, 52.22965]}, "properties": {"Nazwa": "pomnik Adama Mickiewicza", "Dzielnica": "Praga-Południe", "Autor": "Eugeniusz Kozak", "Odsłonięcie": "2000", "Materiał": "brąz (rzeźba), granit (cokół)", "Wymiary": "ok. 2,5 m wys.", "Forma": "popiersie na cokole, na ziemi w pobliżu pomnika umieszczona otwarta księga", "Pochodzenie danych": "BGiK", "Aktualność danych": "styczeń 2015"}}, {"type": "Feature", "_id": "AAJ+WaAABAANo5IAAC", "geometry": {"type": "Point", "coordinates": [21.03211, 52.24024]}, "properties": {"Nazwa": "pomnik Syreny", "Dzielnica": "Śródmieście", "Autor": "Ludwika Nitschowa (rzeźba), Stanisław Pomian-Połujan (cokół)", "Odsłonięcie": "29-06-1939", "Materiał": "brąz (rzeźba), piaskowiec (cokół)", "Wymiary": "4 m wys. (rzeźba), ok. 2 m wys. (cokół)", "Forma": "postać syreny (pół kobiety, pół ryby) z tarczą i mieczem uniesionym nad głową", "Pochodzenie danych": "BGiK", "Aktualność danych": "styczeń 2015"}}, {"type": "Feature", "_id": "AAJ+WaAABAANo5IAAD", "geometry": {"type": "Point", "coordinates": [21.02536, 52.18324]}, "properties": {"Nazwa": "Dzwon Pokoju", "Dzielnica": "Mokotów", "Autor": "nieznany", "Odsłonięcie": "dzwon odzywa się od 1989, dzwon został skradziony w nocy z 3 na 4-12-2002", "Materiał": "brak danych", "Wymiary": "brak danych", "Forma": "dzwon wiszący pod małą, drewnianą pagodą, stojącą na wzniesieniu, dzwon o kształcie metalowego cylindra", "Pochodzenie danych": "BGiK", "Aktualność danych": "styczeń 2015"}}, {"type": "Feature", "_id": "AAJ+WaAABAANo5IAAE", "geometry": {"type": "Point", "coordinates": [20.89483, 52.19246]}, "properties": {"Nazwa": "Pomnik Szarych Szeregów", "Dzielnica": "Ursus", "Autor": "Jan Graczyk", "Odsłonięcie": "23-05-1993", "Materiał": "żeliwo", "Wymiary": "", "Pochodzenie danych": "BGiK", "Aktualność danych": "kwiecień 2017"}}, {"type": "Feature", "_id": "AAJ+WaAABAANo5IAAF", "geometry": {"type": "Point", "coordinates": [21.03075, 52.22103]}, "properties": {"Nazwa": "rzeźba Ab ovo", "Dzielnica": "Śródmieście", "Autor": "Antonina Wysocka-Jończak", "Odsłonięcie": "1975", "Materiał": "brak danych", "Wymiary": "brak danych", "Forma": "brak danych", "Pochodzenie danych": "BGiK", "Aktualność danych": "styczeń 2015"}}, {"type": "Feature", "_id": "AAJ+WaAABAANo5IAAG", "geometry": {"type": "Point", "coordinates": [21.04832, 52.239]}, "properties": {"Nazwa": "pomnik Kazimierza Górskiego", "Dzielnica": "Praga-Południe", "Autor": "Marek Maślaniec", "Odsłonięcie": "26-03-2015", "Materiał": "brąz", "Wymiary": "ok. 3.5 m, 1.5 m cokół", "Forma": "monument przedstawia trenera z piłką przy ramieniu", "Pochodzenie danych": "BGiK", "Aktualność danych": "kwiecień 2015"}}, {"type": "Feature", "_id": "AAJ+WaAABAANo5IAAH", "geometry": {"type": "Point", "coordinates": [20.94842, 52.22964]}, "properties": {"Nazwa": "pomnik gen. Józefa Sowińskiego", "Dzielnica": "Wola", "Autor": "Tadeusz Breyer", "Odsłonięcie": "28-11-1937", "Materiał": "brąz (rzeźba), granit (cokół)", "Wymiary": "ok. 2,5 m wys. (rzeźba), ok. 4 m wys. (cokół z podstawą)", "Forma": "postać generała w mundurze, na szczudle, z szablą w ręce, stojąca na dwuczłonowym cokole", "Pochodzenie danych": "BGiK", "Aktualność danych": "styczeń 2015"}}, {"type": "Feature", "_id": "AAJ+WaAABAANo5IAAI", "geometry": {"type": "Point", "coordinates": [21.00595, 52.24938]}, "properties": {"Nazwa": "pomnik Bohaterów Powstania Warszawskiego", "Dzielnica": "Śródmieście", "Autor": "Wincenty Kućma, Jacek Budyn", "Odsłonięcie": "01-08-1989", "Materiał": "brąz, granit, cement", "Wymiary": "ok. 10 m wys.", "Forma": "grupa powstańców wybiegających spod płyty, obok postaci księdza i łączniczki wychodzący (lub wchodzący) do kanału, w pobliżu para karabinów maszynowych ułożonych na ziemi", "Pochodzenie danych": "BGiK", "Aktualność danych": "styczeń 2015"}}, {"type": "Feature", "_id": "AAJ+WaAABAANo5IAAJ", "geometry": {"type": "Point", "coordinates": [21.11274, 52.24045]}, "properties": {"Nazwa": "pomnik płk. Jana Szypowskiego „Leśnika”", "Dzielnica": "Praga-Południe", "Autor": "brak danych", "Odsłonięcie": "20-09-2006", "Materiał": "brak danych", "Wymiary": "brak danych", "Forma": "głaz z metalową tablicą", "Pochodzenie danych": "BGiK", "Aktualność danych": "styczeń 2015"}}, {"type": "Feature", "_id": "AAJ+WaAABAANo5IAAK", "geometry": {"type": "Point", "coordinates": [20.96561, 52.23685]}, "properties": {"Nazwa": "pomnik poświęcony pacjentom i personelowi medycznemu Szpitala Wolskiego", "Dzielnica": "Wola", "Autor": "Brak danych", "Odsłonięcie": "Brak danych", "Materiał": "Brak danych", "Wymiary": "Brak danych", "Forma": "Pomnik  wolnostojący ", "Pochodzenie danych": "Urząd Dzielnicy Wola", "Aktualność danych": "marzec 2016"}}, {"type": "Feature", "_id": "AAJ+WaAABAANo5JAAA", "geometry": {"type": "Point", "coordinates": [21.09088, 52.17164]}, "properties": {"Nazwa": "pomnik Bitwy Raszyńskiej", "Dzielnica": "Wilanów", "Autor": "Stanisław Kosta Potocki", "Odsłonięcie": "między 1810, a 1816 r. ku czci kapitana Ksawerego Burskiego", "Materiał": "piakowiec", "Wymiary": "brak danych", "Forma": "w formie antycznego grobowca monument wykuty w piaskowcu", "Pochodzenie danych": "BGiK", "Aktualność danych": "styczeń 2015"}}, {"type": "Feature", "_id": "AAJ+WaAABAANo5JAAB", "geometry": {"type": "Point", "coordinates": [20.9522, 52.25578]}, "properties": {"Nazwa": "Zamordowani w Warszawie w okresie stalinowskim", "Dzielnica": "Żoliborz", "Autor": "", "Odsłonięcie": "", "Materiał": "", "Wymiary": "", "Forma": "", "Pochodzenie danych": "BGiK", "Aktualność danych": "czerwiec 2017"}}, {"type": "Feature", "_id": "AAJ+WaAABAANo5JAAC", "geometry": {"type": "Point", "coordinates": [21.0067, 52.21691]}, "properties": {"Nazwa": "monolit Miejsce uświęcone krwią Polaków poległych za wolność Ojczyzny", "Dzielnica": "Śródmieście", "Autor": "brak danych", "Odsłonięcie": "1956", "Materiał": "brak danych", "Wymiary": "brak danych", "Forma": "brak danych", "Pochodzenie danych": "BGiK", "Aktualność danych": "styczeń 2015"}}, {"type": "Feature", "_id": "AAJ+WaAABAANo5JAAD", "geometry": {"type": "Point", "coordinates": [21.03081, 52.22787]}, "properties": {"Nazwa": "rzeźba Dziewczyna z gołębiem", "Dzielnica": "Śródmieście", "Autor": "Franciszek Habdas", "Odsłonięcie": "1975", "Materiał": "brak danych", "Wymiary": "brak danych", "Forma": "brak danych", "Pochodzenie danych": "BGiK", "Aktualność danych": "maj 2017"}}, {"type": "Feature", "_id": "AAJ+WaAABAANo5JAAE", "geometry": {"type": "Point", "coordinates": [21.01625, 52.24613]}, "properties": {"Nazwa": "Przekupka Mariensztacka", "Dzielnica": "Śródmieście", "Autor": "Barbara Zbrożyna", "Odsłonięcie": "1949 r.", "Materiał": "piaskowiec", "Wymiary": "", "Forma": "postać kobiety trzymającej na rękach kurę, u jej stóp leży kosz z jabłkami", "Pochodzenie danych": "BGiK", "Aktualność danych": "listopad 2017"}}, {"type": "Feature", "_id": "AAJ+WaAABAANo5JAAF", "geometry": {"type": "Point", "coordinates": [21.07775, 52.24374]}, "properties": {"Nazwa": "pomnik 21 Praskiego Pułku Piechoty „Dzieci Warszawy”", "Dzielnica": "Praga-Południe", "Autor": "Stefan Putowski, Adam Siemaszko i Zygmunt Stępiński", "Odsłonięcie": "30-09-1967", "Materiał": "kamień", "Wymiary": "brak danych", "Forma": "Kamień z upamiętniającym napisem", "Pochodzenie danych": "BGiK", "Aktualność danych": "styczeń 2015"}}, {"type": "Feature", "_id": "AAJ+WaAABAANo5JAAG", "geometry": {"type": "Point", "coordinates": [21.02503, 52.21851]}, "properties": {"Nazwa": "pomnik Romana Dmowskiego", "Dzielnica": "Śródmieście", "Autor": " Wojciech Mendzelewski, Maria Marek-Prus i Piotr Prus", "Odsłonięcie": "10-11-2006", "Materiał": "brązu (rzeźba)", "Wymiary": "5 m wys.", "Forma": "postać na cokole przedstawiająca trzymającego w lewej ręce akt traktatu wersalskiego, a w prawej kapelusz", "Pochodzenie danych": "BGiK", "Aktualność danych": "styczeń 2015"}}, {"type": "Feature", "_id": "AAJ+WaAABAANo5JAAH", "geometry": {"type": "Point", "coordinates": [21.03126, 52.22836]}, "properties": {"Nazwa": "Unity", "Dzielnica": "Śródmieście", "Autor": "Jerzy Kenar", "Odsłonięcie": "18-04-2013", "Materiał": "granit", "Wymiary": "średnica ok. 11 metrów i wysokość nieco ponad 1 metr", "Forma": "granitowa plecionka ma średnicę ok. 11 metrów i wysokość nieco ponad 1 m.", "Pochodzenie danych": "BGiK", "Aktualność danych": "maj 2017"}}, {"type": "Feature", "_id": "AAJ+WaAABAANo5JAAI", "geometry": {"type": "Point", "coordinates": [21.00834, 52.15699]}, "properties": {"Nazwa": "pomnik Fryderyka Jurjewicza", "Dzielnica": "Ursynów", "Autor": "G. Chmielewski", "Odsłonięcie": "14-10-1929 na Torze przy ul. Polnej, 1939 na obecnym miejscu", "Materiał": "brąz (rzeźba), granit (cokół)", "Wymiary": "ok. 4 m wys.", "Forma": "Popiersie na cokole", "Pochodzenie danych": "BGiK", "Aktualność danych": "styczeń 2015"}}, {"type": "Feature", "_id": "AAJ+WaAABAANo5JAAJ", "geometry": {"type": "Point", "coordinates": [21.0366, 52.22819]}, "properties": {"Nazwa": " ", "Dzielnica": "Śródmieście", "Autor": "Ł.C.", "Odsłonięcie": "23-09-1994 r.", "Materiał": "głaz i bazaltowa tablica", "Wymiary": "bazaltowa tablica 85 x 118 cm umieszczona na nieco ", "Forma": "bazaltowa tablica umieszczona na nieco ", "Pochodzenie danych": "BGiK", "Aktualność danych": "styczeń 2015"}}, {"type": "Feature", "_id": "AAJ+WaAABAANo5JAAK", "geometry": {"type": "Point", "coordinates": [21.05571, 52.23954]}, "properties": {"Nazwa": "pomnik Poległych w II wojnie światowej Sportowców-Akademików", "Dzielnica": "Praga-Południe", "Autor": "brak danych", "Odsłonięcie": " ", "Materiał": "brak danych", "Wymiary": "brak danych", "Forma": "głaz z małą tabliczką z symbolem AZS, dedykacja pod kamieniem", "Pochodzenie danych": "BGiK", "Aktualność danych": "styczeń 2015"}}, {"type": "Feature", "_id": "AAJ+WaAABAANo5KAAA", "geometry": {"type": "Point", "coordinates": [21.08792, 52.16593]}, "properties": {"Nazwa": "pomnik Franciszka Karpińskiego", "Dzielnica": "Wilanów", "Autor": "JakubTatarkiewicz", "Odsłonięcie": " ", "Materiał": "brak danych", "Wymiary": "brak danych", "Forma": "postać siedząca na cokole, z książką na kolanach i lirą w ręku", "Pochodzenie danych": "BGiK", "Aktualność danych": "styczeń 2015"}}, {"type": "Feature", "_id": "AAJ+WaAABAANo5KAAB", "geometry": {"type": "Point", "coordinates": [20.99087, 52.24623]}, "properties": {"Nazwa": "pomnik-mauzoleum Pawiak", "Dzielnica": "Śródmieście", "Odsłonięcie": "28-11-1965", "Materiał": "szary granit śląski, sjenit (obelisk)", "Wymiary": "8 m wys. (obelisk)", "Forma": "budynek byłego więzienia, w murze prześwity wypełnione kompozycjami ze spawanego żelaza, pomnik na wzór ocalałego drzewa rosnące obok zachodniej częściowo dawnej bramy więziennej", "Pochodzenie danych": "BGiK", "Aktualność danych": "styczeń 2015"}}, {"type": "Feature", "_id": "AAJ+WaAABAANo5KAAC", "geometry": {"type": "Point", "coordinates": [20.9852, 52.21872]}, "properties": {"Nazwa": "pomnik Gabriela Narutowicza", "Dzielnica": "Ochota", "Autor": "Edward Wittig, Alojzy Nawrat (powiększenie rzeźby)", "Odsłonięcie": "09-12-2002", "Materiał": "brąz (rzeźba), granit (cokół)", "Wymiary": "1,6 m wys. (rzeźba), 3 m wys. (cokół)", "Forma": "popiersie na cokole", "Pochodzenie danych": "BGiK", "Aktualność danych": "styczeń 2015"}}, {"type": "Feature", "_id": "AAJ+WaAABAANo5KAAD", "geometry": {"type": "Point", "coordinates": [20.95441, 52.26021]}, "properties": {"Nazwa": "Żołnierzom Armii Ludowej", "Dzielnica": "Żoliborz", "Autor": "", "Odsłonięcie": "", "Materiał": "", "Wymiary": "", "Forma": "", "Pochodzenie danych": "BGiK", "Aktualność danych": "czerwiec 2017"}}, {"type": "Feature", "_id": "AAJ+WaAABAANo5KAAE", "geometry": {"type": "Point", "coordinates": [21.04728, 52.23804]}, "properties": {"Nazwa": "rzeźba Sztafeta", "Dzielnica": "Praga-Południe", "Autor": "Adam Roman", "Odsłonięcie": "22-07-1955, 2008", "Materiał": "Beton", "Wymiary": "4,5 m.", "Forma": "3 biegaczy w momencie przekazywania pałeczki", "Pochodzenie danych": "BGiK", "Aktualność danych": "styczeń 2015"}}, {"type": "Feature", "_id": "AAJ+WaAABAANo5KAAF", "geometry": {"type": "Point", "coordinates": [21.00236, 52.26514]}, "properties": {"Nazwa": "Brama Straceń", "Dzielnica": "Żoliborz", "Autor": "", "Odsłonięcie": "", "Materiał": "", "Wymiary": "", "Forma": "", "Pochodzenie danych": "BGiK", "Aktualność danych": "kwiecień 2017"}}, {"type": "Feature", "_id": "AAJ+WaAABAANo5KAAG", "geometry": {"type": "Point", "coordinates": [20.98379, 52.26724]}, "properties": {"Nazwa": "pomnik ks. Jerzego Popiełuszki", "Dzielnica": "Żoliborz", "Autor": "Teresa Pastuszka-Kowalska", "Odsłonięcie": "19-10-1996", "Materiał": "kamionka", "Wymiary": "ok. 3 m wys.", "Forma": "postać na cokole", "Pochodzenie danych": "BGiK", "Aktualność danych": "styczeń 2015"}}, {"type": "Feature", "_id": "AAJ+WaAABAANo5KAAH", "geometry": {"type": "Point", "coordinates": [21.02346, 52.22872]}, "properties": {"Nazwa": "pomnik ks. Jakuba Falkowskiego", "Dzielnica": "Śródmieście", "Odsłonięcie": "02-05-1875, 23-10-1968", "Materiał": "Sztuczny kamień (rzeźba cokół)", "Wymiary": "ok. 3,5 m wys.", "Forma": "Popiersie na cokole", "Pochodzenie danych": "BGiK", "Aktualność danych": "styczeń 2015"}}, {"type": "Feature", "_id": "AAJ+WaAABAANo5KAAI", "geometry": {"type": "Point", "coordinates": [21.03127, 52.14779]}, "properties": {"Nazwa": "pomnik Marii Skłodowskiej-Curie", "Dzielnica": "Ursynów", "Autor": "Ludwik Nistchowa", "Odsłonięcie": "05-09-1935, 04-1997", "Materiał": "brąz (rzeźba), granit (cokół)", "Wymiary": "ok. 2 m wys. (rzeźba), całość ok. 3 m wys.", "Forma": "skupiona postać kobiety, stojąca na cokole", "Pochodzenie danych": "BGiK", "Aktualność danych": "styczeń 2015"}}, {"type": "Feature", "_id": "AAJ+WaAABAANo5KAAJ", "geometry": {"type": "Point", "coordinates": [20.98951, 52.24579]}, "properties": {"Nazwa": "pomnik gen. Jana Jura-Gorzechowskiego", "Dzielnica": "Wola", "Autor": "brak danych", "Odsłonięcie": " ", "Materiał": "brak danych", "Wymiary": "brak danych", "Forma": "Głaz z upamiętniającym napisem", "Pochodzenie danych": "BGiK", "Aktualność danych": "styczeń 2015"}}, {"type": "Feature", "_id": "AAJ+WaAABAANo5KAAK", "geometry": {"type": "Point", "coordinates": [20.98834, 52.21636]}, "properties": {"Nazwa": "pomnik Poległych lotników", "Dzielnica": "Ochota", "Odsłonięcie": "11-11-1932, 09-09-1967", "Materiał": "brąz (rzeźba), granit (cokół)", "Wymiary": "15 m wys. (całość), 6 m wys. (rzeźba), 9 m (cokół)", "Forma": "postać lotnika wspartego o śmigło, na cokole", "Pochodzenie danych": "BGiK", "Aktualność danych": "styczeń 2015"}}, {"type": "Feature", "_id": "AAJ+WaAABAANo5LAAA", "geometry": {"type": "Point", "coordinates": [20.97404, 52.24353]}, "properties": {"Nazwa": "pomnik Wspólnego męczeństwa Żydów i Polaków", "Dzielnica": "Wola", "Autor": "Tadeusz Szumielewicz i Marek Martens", "Odsłonięcie": "1989", "Materiał": "brak danych", "Wymiary": "brak danych", "Forma": "słup otoczony płytami", "Pochodzenie danych": "BGiK", "Aktualność danych": "styczeń 2015"}}, {"type": "Feature", "_id": "AAJ+WaAABAANo5LAAB", "geometry": {"type": "Point", "coordinates": [21.02051, 52.22307]}, "properties": {"Nazwa": "pomnik Poległych Żołnierzy VII Zgrupowania AK „Ruczaj”", "Dzielnica": "Śródmieście", "Autor": "Helena Dmochowska", "Odsłonięcie": "28-05-1993", "Materiał": "kamień", "Wymiary": "brak danych", "Forma": "Głaz z dedykacją na tablicy, na szczycie umieszczono znak Polski Walczącej", "Pochodzenie danych": "BGiK", "Aktualność danych": "styczeń 2015"}}, {"type": "Feature", "_id": "AAJ+WaAABAANo5LAAC", "geometry": {"type": "Point", "coordinates": [20.98552, 52.21901]}, "properties": {"Nazwa": "Głaz  upamiętniający 100. rocznicę działalności 16. Warszawskiej Drużyny Harcerzy im. Zawiszy Czarnego na terenie Dzielnicy", "Dzielnica": "Ochota", "Autor": "", "Odsłonięcie": "18-09-2011", "Materiał": "", "Wymiary": "", "Forma": "głaz na podmurówce z tablicą", "Pochodzenie danych": "BGiK", "Aktualność danych": "kwiecień 2017"}}, {"type": "Feature", "_id": "AAJ+WaAABAANo5LAAD", "geometry": {"type": "Point", "coordinates": [21.01545, 52.23943]}, "properties": {"Nazwa": "pomnik Bartolomeo Colleoniego", "Dzielnica": "Śródmieście", "Autor": "Adrea del Verrocchio", "Odsłonięcie": "ustawiony 1950", "Materiał": "brąz (rzeźba), beton (cokół)", "Wymiary": "4,5 m wys. (rzeźba)", "Forma": "kondotier na koniu, na niskim cokole", "Pochodzenie danych": "BGiK", "Aktualność danych": "styczeń 2015"}}, {"type": "Feature", "_id": "AAJ+WaAABAANo5LAAE", "geometry": {"type": "Point", "coordinates": [21.01296, 52.20448]}, "properties": {"Nazwa": "pomnik gen. Antoniego Madalińskiego", "Dzielnica": "Mokotów", "Autor": "Wiesław Winkler", "Odsłonięcie": "poźna jesień 2002", "Materiał": "piaskowiec (rzeźba), beton (cokół)", "Wymiary": "ok. 2,5 m wys.", "Forma": "popiersie na cokole w kształcie walca", "Pochodzenie danych": "BGiK", "Aktualność danych": "styczeń 2015"}}, {"type": "Feature", "_id": "AAJ+WaAABAANo5LAAF", "geometry": {"type": "Point", "coordinates": [21.04802, 52.23466]}, "properties": {"Nazwa": "pomnik René Goscinny’ego", "Dzielnica": "Praga-Południe", "Autor": "brak danych", "Odsłonięcie": "25-09-2013", "Materiał": "brąz", "Wymiary": "brak danych", "Forma": "Popiersie ustawione na cokole", "Pochodzenie danych": "BGiK", "Aktualność danych": "styczeń 2015"}}, {"type": "Feature", "_id": "AAJ+WaAABAANo5LAAG", "geometry": {"type": "Point", "coordinates": [21.03005, 52.25215]}, "properties": {"Nazwa": "pomnik ks. Ignacego Skorupki", "Dzielnica": "Praga-Północ", "Autor": " Andrzeja Renesa", "Odsłonięcie": "ufundowany przez diecezję warszawsko-praską z okazji 85. rocznicy Cudu nad Wisłą", "Materiał": "spiż (rzeźba), granit (cokół)", "Wymiary": "brak danych", "Forma": "postać księdza trzymającego krzyż w lewej ręce, a prawą wskazującego kierunek ataku", "Pochodzenie danych": "BGiK", "Aktualność danych": "styczeń 2015"}}, {"type": "Feature", "_id": "AAJ+WaAABAANo5LAAH", "geometry": {"type": "Point", "coordinates": [21.05265, 52.23105]}, "properties": {"Nazwa": "pomnik Bolesława Prusa", "Dzielnica": "Praga-Południe", "Autor": "Stanisław Sikora", "Odsłonięcie": "19-05-1983", "Materiał": "brąz (rzeźba), czerwony piaskowiec (cokół)", "Wymiary": "ok. 3 m wys.", "Forma": "popiersie na cokole", "Pochodzenie danych": "BGiK", "Aktualność danych": "styczeń 2015"}}, {"type": "Feature", "_id": "AAJ+WaAABAANo5LAAI", "geometry": {"type": "Point", "coordinates": [21.0275, 52.21784]}, "properties": {"Nazwa": "pomnik Jakuba Wagi", "Dzielnica": "Śródmieście", "Autor": "Franciszek Roth, rekonstrukcja Ferdynand Jarocha", "Odsłonięcie": "03-05-1918, 30-05-1964", "Materiał": "piaskowiec", "Wymiary": "ok. 2,5 m wys.", "Forma": "popiersie na cokole", "Pochodzenie danych": "BGiK", "Aktualność danych": "styczeń 2015"}}, {"type": "Feature", "_id": "AAJ+WaAABAANo5LAAJ", "geometry": {"type": "Point", "coordinates": [20.97216, 52.27572]}, "properties": {"Nazwa": "pomnik Ofiar Rzezi na Wołyniu w 1943 r.", "Dzielnica": "Żoliborz", "Autor": "Karzimierz Danilewicz", "Odsłonięcie": "07-2003", "Materiał": "granit", "Wymiary": "6 m wys.", "Forma": "11 słupów w kształcie świec, ustawionych na mapie Wołynia ułożonej z szarych granitowych kostek, pośrodku kompozycji ułożona poziomo płyta", "Pochodzenie danych": "BGiK", "Aktualność danych": "styczeń 2015"}}, {"type": "Feature", "_id": "AAJ+WaAABAANo5LAAK", "geometry": {"type": "Point", "coordinates": [21.00842, 52.25801]}, "properties": {"Nazwa": "pomnik Nauczycieli", "Dzielnica": "Śródmieście", "Autor": "Tadeusz Sowicki", "Odsłonięcie": "12-11-1938, 22-11-1958", "Materiał": "granit", "Wymiary": "ok. 1,5 m wys.", "Forma": "kompozycja z pięciu głazów", "Pochodzenie danych": "BGiK", "Aktualność danych": "styczeń 2015"}}, {"type": "Feature", "_id": "AAJ+WaAABAANo5MAAA", "geometry": {"type": "Point", "coordinates": [21.01639, 52.2417]}, "properties": {"Nazwa": "pomnik Bolesława Prusa", "Dzielnica": "Śródmieście", "Autor": "Anna Kamieńska -Łapińska", "Odsłonięcie": "15-01-1977", "Materiał": "brąz (rzeźba), granit (płyta)", "Wymiary": "3,6 m wys. (rzeźba), 30 m wys. (płyta)", "Forma": "postać stojąca na niewielkiej płycie", "Pochodzenie danych": "BGiK", "Aktualność danych": "styczeń 2015"}}, {"type": "Feature", "_id": "AAJ+WaAABAANo5MAAB", "geometry": {"type": "Point", "coordinates": [20.9211, 52.25415]}, "properties": {"Nazwa": "pomnik ks. Bronisława Markiewicz", "Dzielnica": "Bemowo", "Autor": "brak danych", "Odsłonięcie": " ", "Materiał": "brak danych", "Wymiary": "brak danych", "Forma": "brak danych", "Pochodzenie danych": "BGiK", "Aktualność danych": "styczeń 2015"}}, {"type": "Feature", "_id": "AAJ+WaAABAANo5MAAC", "geometry": {"type": "Point", "coordinates": [20.9515, 52.25842]}, "properties": {"Nazwa": "Pomnik Pułku AK \"Jeleń\"", "Dzielnica": "Żoliborz", "Autor": "", "Odsłonięcie": "", "Materiał": "", "Wymiary": "", "Forma": "", "Pochodzenie danych": "BGiK", "Aktualność danych": "czerwiec 2017"}}, {"type": "Feature", "_id": "AAJ+WaAABAANo5MAAD", "geometry": {"type": "Point", "coordinates": [20.9469, 52.27975]}, "properties": {"Nazwa": "pomnik Żołnierzy 77 Pułku Piechoty WP i 77 Pułku Piechoty Okręgu Nowogrodzkiego AK oraz Mieszkańców Ziemi Lidzkiej", "Dzielnica": "Bielany", "Autor": "brak danych", "Odsłonięcie": " ", "Materiał": "brak danych", "Wymiary": "brak danych", "Forma": "Obelisk z upamiętniającym napisem na tablicy", "Pochodzenie danych": "BGiK", "Aktualność danych": "styczeń 2015"}}, {"type": "Feature", "_id": "AAJ+WaAABAANo5MAAE", "geometry": {"type": "Point", "coordinates": [20.99425, 52.24973]}, "properties": {"Nazwa": "pomnik Bohaterów Getta", "Dzielnica": "Śródmieście", "Autor": "Natan Rappaport, Leon Marek Suzin", "Odsłonięcie": "19-04-1948", "Materiał": "granit, brąz (pałskorzeźba)", "Forma": "\"Walka\" -płaskorzeźba na murze w formie trapezu, po drugiej stronie relief-\"Pochód na zagładę\", po bokach dwa siedmioramienne świeczniki", "Pochodzenie danych": "BGiK", "Aktualność danych": "styczeń 2015"}}, {"type": "Feature", "_id": "AAJ+WaAABAANo5MAAF", "geometry": {"type": "Point", "coordinates": [21.00205, 52.24395]}, "properties": {"Nazwa": "pomnik Stefana Starzyńskiego", "Dzielnica": "Śródmieście", "Autor": "Andrzej Renes", "Odsłonięcie": "10-11-1993", "Materiał": "brąz (rzeźba), granit (cokół)", "Wymiary": "ok. 4 m wys.", "Forma": "popiersie prezydenta z wielkim planem stolicy", "Pochodzenie danych": "BGiK", "Aktualność danych": "styczeń 2015"}}, {"type": "Feature", "_id": "AAJ+WaAABAANo5MAAG", "geometry": {"type": "Point", "coordinates": [20.91769, 52.25824]}, "properties": {"Nazwa": "pomnik Żołnierzy Wyklętych", "Dzielnica": "Bemowo", "Autor": "", "Odsłonięcie": "29-11-2011", "Materiał": "", "Wymiary": "", "Forma": "wzbijający się do lotu orzeł na cokole", "Pochodzenie danych": "BGiK", "Aktualność danych": "kwiecień 2017"}}, {"type": "Feature", "_id": "AAJ+WaAABAANo5MAAH", "geometry": {"type": "Point", "coordinates": [21.01655, 52.29186]}, "properties": {"Nazwa": "pomnik Cudu nad Wisłą", "Dzielnica": "Targówek", "Autor": "brak danych", "Odsłonięcie": "15-08-1925", "Materiał": "cegła, piskowiec,stal", "Wymiary": "brak danych", "Forma": "Cokół z otynkowanej cegły, krzyż stalowy, płyta z piaskowca.", "Pochodzenie danych": "BGiK", "Aktualność danych": "styczeń 2015"}}, {"type": "Feature", "_id": "AAJ+WaAABAANo5MAAI", "geometry": {"type": "Point", "coordinates": [21.07648, 52.24606]}, "properties": {"Nazwa": "pomnik Budowy Szosy Brzeskiej", "Dzielnica": "Praga-Południe", "Autor": "Paweł Maliński", "Odsłonięcie": "21-05-1825", "Materiał": "żeliwo", "Wymiary": "14 m wys.", "Forma": "4-boczny obelisk, od frontu pokryty 9. płaskorzeźbionymi płytami, ustawiony na stopniach i cokole, a całość w kurhanie", "Pochodzenie danych": "BGiK", "Aktualność danych": "styczeń 2015"}}, {"type": "Feature", "_id": "AAJ+WaAABAANo5MAAJ", "geometry": {"type": "Point", "coordinates": [21.02612, 52.25385]}, "properties": {"Nazwa": "pomnik Elizy Orzeszkowej", "Dzielnica": "Praga-Północ", "Autor": "Henryk Kuna", "Odsłonięcie": "30-10-1938, 30-10-2003", "Materiał": "brąz (rzeźba), granit (cokół)", "Wymiary": "ok. 0,5 m wys. (rzeźba), 2m wys. (cokół)", "Forma": "popiersie na cokole", "Pochodzenie danych": "BGiK", "Aktualność danych": "styczeń 2015"}}, {"type": "Feature", "_id": "AAJ+WaAABAANo5MAAK", "geometry": {"type": "Point", "coordinates": [20.95475, 52.25872]}, "properties": {"Nazwa": " W hołdzie Zesłańcom Sybiru", "Dzielnica": "Żoliborz", "Autor": "", "Odsłonięcie": "", "Materiał": "", "Wymiary": "", "Forma": "", "Pochodzenie danych": "BGiK", "Aktualność danych": "czerwiec 2017"}}, {"type": "Feature", "_id": "AAJ+WaAABAANo5MAAL", "geometry": {"type": "Point", "coordinates": [20.89937, 52.22]}, "properties": {"Nazwa": "pomnik Walczących o wolność i niepodległość Rzeczpospolitej", "Dzielnica": "Bemowo", "Autor": "nieznany", "Odsłonięcie": "1994", "Materiał": "czerwony granit", "Wymiary": "ok. 3,5 m wys.", "Forma": "obelisk, na którego frontowej ścianie widnieje fragment wiersza K.K. Baczyńskiego", "Pochodzenie danych": "BGiK", "Aktualność danych": "styczeń 2015"}}, {"type": "Feature", "_id": "AAJ+WaAABAANo5NAAA", "geometry": {"type": "Point", "coordinates": [21.0103, 52.2428]}, "properties": {"Nazwa": "rzeźba Krzesło", "Dzielnica": "Śródmieście", "Autor": "Tadeusz Kantor", "Odsłonięcie": "2001", "Materiał": "brak danych", "Wymiary": "brak danych", "Forma": "brak danych", "Pochodzenie danych": "BGiK", "Aktualność danych": "styczeń 2015"}}, {"type": "Feature", "_id": "AAJ+WaAABAANo5NAAB", "geometry": {"type": "Point", "coordinates": [20.95143, 52.2582]}, "properties": {"Nazwa": "Pomnik żołnierzy zgrupowania AK \"Obroża\"", "Dzielnica": "Żoliborz", "Autor": "", "Odsłonięcie": "", "Materiał": "", "Wymiary": "", "Forma": "", "Pochodzenie danych": "BGiK", "Aktualność danych": "czerwiec 2017"}}, {"type": "Feature", "_id": "AAJ+WaAABAANo5NAAC", "geometry": {"type": "Point", "coordinates": [21.05238, 52.24206]}, "properties": {"Nazwa": "pomnik Edwarda Mandella House'a", "Dzielnica": "Praga-Południe", "Autor": "Franciszek Black, rekonstrukcja Marian Konieczny", "Odsłonięcie": "04-07-1932, 1991", "Materiał": "brąz (rzeźba), czerwony granit (cokół)", "Wymiary": "brak danych", "Forma": "postać stojąca na cokole", "Pochodzenie danych": "BGiK", "Aktualność danych": "styczeń 2015"}}, {"type": "Feature", "_id": "AAJ+WaAABAANo5NAAD", "geometry": {"type": "Point", "coordinates": [21.02353, 52.22866]}, "properties": {"Nazwa": "pomnik Głuchych Żołnierzy Armii Krajowej", "Dzielnica": "Śródmieście", "Autor": "", "Odsłonięcie": "22-10-2015", "Materiał": "", "Wymiary": "", "Forma": "", "Pochodzenie danych": "BGiK", "Aktualność danych": "kwiecień 2017"}}, {"type": "Feature", "_id": "AAJ+WaAABAANo5NAAE", "geometry": {"type": "Point", "coordinates": [21.01215, 52.24979]}, "properties": {"Nazwa": "pomnik Syrenki", "Dzielnica": "Śródmieście", "Autor": "Konstanty Hegel", "Odsłonięcie": "07-08-1855, 12-12-1999", "Materiał": "cynk pokryty warstwą brązu (rzeźba), indyjski granit zwany cashmere white (cokół)", "Wymiary": "około 2,5 m wys. (rzeźba), 1,5 m wys. (cokół)", "Forma": "postać syreny (pół kobiety- pół ryby) z tarczą i szablą, na cokole", "Pochodzenie danych": "BGiK", "Aktualność danych": "styczeń 2015"}}, {"type": "Feature", "_id": "AAJ+WaAABAANo5NAAF", "geometry": {"type": "Point", "coordinates": [21.02408, 52.22337]}, "properties": {"Nazwa": "kamień upamiętniający miejsce zamachu na Franza Kutscherę", "Dzielnica": "Śródmieście", "Autor": "brak danych", "Odsłonięcie": " ", "Materiał": "kamień", "Wymiary": "brak danych", "Forma": "Głaz z dedykacją na tablicy", "Pochodzenie danych": "BGiK", "Aktualność danych": "styczeń 2015"}}, {"type": "Feature", "_id": "AAJ+WaAABAANo5NAAG", "geometry": {"type": "Point", "coordinates": [20.99552, 52.22279]}, "properties": {"Nazwa": "pomnik Sokratesa Starynkiewicza", "Dzielnica": "Ochota", "Odsłonięcie": "1907, kopia 1996", "Materiał": "brąz (popiesie), różowy granit podolski (cokół)", "Wymiary": "ok. 3 m wys.", "Forma": "popiesie na ozdobnym cokole", "Pochodzenie danych": "BGiK", "Aktualność danych": "styczeń 2015"}}, {"type": "Feature", "_id": "AAJ+WaAABAANo5NAAH", "geometry": {"type": "Point", "coordinates": [21.02023, 52.21077]}, "properties": {"Nazwa": "pomnik Weterana", "Dzielnica": "Mokotów", "Autor": "prof. Maciej Aleksandrowicz", "Odsłonięcie": "21-12-2014", "Materiał": "brąz (rzeźba)", "Wymiary": "3,5 m wys.", "Forma": "", "Pochodzenie danych": "BGiK", "Aktualność danych": "styczeń 2015"}}, {"type": "Feature", "_id": "AAJ+WaAABAANo5NAAI", "geometry": {"type": "Point", "coordinates": [21.0235, 52.22848]}, "properties": {"Nazwa": "pomnik ks. Jakuba Falkowskiego", "Dzielnica": "Śródmieście", "Autor": "Mieczysław Syposz, Ryszrd Stryjecki", "Odsłonięcie": "23-10-2002", "Materiał": "brąz (rzeźba), granit (cokół)", "Wymiary": "ok. 2,5 m wys., cokół  1,8 m wys.", "Forma": "popiersie na cokole", "Pochodzenie danych": "BGiK", "Aktualność danych": "styczeń 2015"}}, {"type": "Feature", "_id": "AAJ+WaAABAANo5NAAJ", "geometry": {"type": "Point", "coordinates": [21.08878, 52.24982]}, "properties": {"Nazwa": "pomnik Józefa Polińskiego", "Dzielnica": "Praga-Południe", "Autor": "projekt Tadeusza Burchacki, wykonany w pracowni Tadeusza Chruścika i Zbigniewa Ilczuka", "Odsłonięcie": "2002 r.", "Materiał": "kamień", "Wymiary": "brak danych", "Forma": "forma kamienia z zamieszczonym na nim zdjęciem oraz wyrytymi napisami, z tyłu pomnika umieszczono tekst wiersza", "Pochodzenie danych": "BGiK", "Aktualność danych": "styczeń 2015"}}, {"type": "Feature", "_id": "AAJ+WaAABAANo5NAAK", "geometry": {"type": "Point", "coordinates": [21.07266, 52.17937]}, "properties": {"Nazwa": "figura św. Jana Nepomucena", "Dzielnica": "Mokotów", "Autor": "ponowne wykonanie Maria Owczarczyk", "Odsłonięcie": "figura rozpadła sie w 1981, ponowne odłonięcie po rekonstrukcji 1999, przeniesiona na terażniejsze miejsce w 2002", "Materiał": "brak danych", "Wymiary": "brak danych", "Forma": "postać na cokole", "Pochodzenie danych": "BGiK", "Aktualność danych": "styczeń 2015"}}, {"type": "Feature", "_id": "AAJ+WaAABAANo5OAAA", "geometry": {"type": "Point", "coordinates": [21.0165, 52.1652]}, "properties": {"Nazwa": "pomnik Pierwszego Boju Batalionu „Karpaty” Pułku AK „Baszta”", "Dzielnica": "Mokotów", "Autor": "brak danych", "Odsłonięcie": " ", "Materiał": "kamień", "Wymiary": "brak danych", "Forma": "Głaz z dedykacją", "Pochodzenie danych": "BGiK", "Aktualność danych": "styczeń 2015"}}, {"type": "Feature", "_id": "AAJ+WaAABAANo5OAAB", "geometry": {"type": "Point", "coordinates": [21.04395, 52.15685]}, "properties": {"Nazwa": "obelisk poświęcony Janowi Rodowiczowi „Anodzie”", "Dzielnica": "Ursynów", "Autor": "", "Odsłonięcie": "07-03-2013", "Materiał": "", "Wymiary": "", "Forma": "", "Pochodzenie danych": "BGiK", "Aktualność danych": "kwiecień 2017"}}, {"type": "Feature", "_id": "AAJ+WaAABAANo5OAAC", "geometry": {"type": "Point", "coordinates": [20.96794, 52.2438]}, "properties": {"Nazwa": "pomnik Electio Viritim", "Dzielnica": "Wola", "Autor": "Stanisław Michalik", "Odsłonięcie": "19-06-1997", "Materiał": "granit (kolumna, brąz (korona)", "Wymiary": "4,5 m wys. (kolumna), 1 m wys. (korona)", "Forma": "kolumna zwieńczoną ażurową koroną", "Pochodzenie danych": "BGiK", "Aktualność danych": "styczeń 2015"}}, {"type": "Feature", "_id": "AAJ+WaAABAANo5OAAD", "geometry": {"type": "Point", "coordinates": [21.03839, 52.21587]}, "properties": {"Nazwa": "pomnik Eugeniusza Kwiatkowskiego", "Dzielnica": "Śródmieście", "Autor": "Andrzej Renes", "Odsłonięcie": "24-06-2002", "Materiał": "brąz (rzeźba), granit (cokół)", "Wymiary": "ok. 1 m wys. (rzeźba), ok. 2 m wys. (cokół)", "Forma": "popiersie na cokole", "Pochodzenie danych": "BGiK", "Aktualność danych": "styczeń 2015"}}, {"type": "Feature", "_id": "AAJ+WaAABAANo5OAAE", "geometry": {"type": "Point", "coordinates": [21.02586, 52.22479]}, "properties": {"Nazwa": "pomnik Cichociemnych Spadochroniarzy AK", "Dzielnica": "Śródmieście", "Autor": "Marek Moderau", "Odsłonięcie": "07-10-2013", "Materiał": "Czarny polerowany granit", "Wymiary": "40x50x250 cm", "Forma": "Dwa przesunięte względem siebie prostopadłościany o wymiarach 40x50x250 cm umieszczone na poziomej płycie o wymiarach 120x120x10 cm", "Pochodzenie danych": "BGiK", "Aktualność danych": "kwiecień 2017"}}, {"type": "Feature", "_id": "AAJ+WaAABAANo5OAAF", "geometry": {"type": "Point", "coordinates": [20.92855, 52.29312]}, "properties": {"Nazwa": "pomnik Strzelców Kaniowskich", "Dzielnica": "Bielany", "Autor": "Witold Korski, Józef Potępa", "Odsłonięcie": "17-11-1979", "Materiał": "żelazo (rzeźba), beton (podstawa), granit (kamienie)", "Wymiary": "ok. 2,5 m wys. (rzeźba), ok. 1 m wys. (prostopadłościany), ok. 0,7 m wys. (kamienie)", "Forma": "kompozycja abstrakcyjna z trzech konstrukcji przestrzennych na betonowej podstawie, 5 prostopadłościanów, dwie bryły granitu i postument z tablicą", "Pochodzenie danych": "BGiK", "Aktualność danych": "styczeń 2015"}}, {"type": "Feature", "_id": "AAJ+WaAABAANo5OAAG", "geometry": {"type": "Point", "coordinates": [21.0062, 52.24466]}, "properties": {"Nazwa": "Reduta Bank Polski", "Dzielnica": "Śródmieście", "Autor": "", "Odsłonięcie": "", "Materiał": "stal", "Wymiary": "ok. 2,5 m wys.", "Forma": "kotwica powstańcza ze stali nierdzewnej", "Pochodzenie danych": "BGiK", "Aktualność danych": "lipiec 2016"}}, {"type": "Feature", "_id": "AAJ+WaAABAANo5OAAH", "geometry": {"type": "Point", "coordinates": [21.043, 52.22871]}, "properties": {"Nazwa": "pomnik-płyta Desantu 3 Dywizji Piechoty I Armii WP", "Dzielnica": "Śródmieście", "Autor": "brak danych", "Odsłonięcie": " ", "Materiał": "brak danych", "Wymiary": "brak danych", "Forma": "płyta z dedykacją", "Pochodzenie danych": "BGiK", "Aktualność danych": "styczeń 2015"}}, {"type": "Feature", "_id": "AAJ+WaAABAANo5OAAI", "geometry": {"type": "Point", "coordinates": [20.95147, 52.25835]}, "properties": {"Nazwa": "Powstańcom Warszawy Gr. \"Krybar\"", "Dzielnica": "Żoliborz", "Autor": "", "Odsłonięcie": "", "Materiał": "", "Wymiary": "", "Forma": "", "Pochodzenie danych": "BGiK", "Aktualność danych": "czerwiec 2017"}}, {"type": "Feature", "_id": "AAJ+WaAABAANo5OAAJ", "geometry": {"type": "Point", "coordinates": [20.94021, 52.31934]}, "properties": {"Nazwa": "pomnik bł. Edmunda Bojanowskiego", "Dzielnica": "Białołęka", "Autor": "Władysław Kisielecki", "Odsłonięcie": "16-06-1998", "Materiał": "sztuczny kamień pomalowany na biało (rzeźba), cokół obłożony płytkami ceramicznymi imitującymi cegłę", "Wymiary": "ok. 2 m wys., rzeźba ok. 1 m wys.", "Forma": "postać mężczyzny siedząca na ławce i dwoje dzieci", "Pochodzenie danych": "BGiK", "Aktualność danych": "styczeń 2015"}}, {"type": "Feature", "_id": "AAJ+WaAABAANo5OAAK", "geometry": {"type": "Point", "coordinates": [21.04395, 52.17231]}, "properties": {"Nazwa": "pomnik Męczenników Terroru Komunistycznego w Polsce w latach 1944-1956", "Dzielnica": "Ursynów", "Autor": "Maciej Szańkowski, Sławomir Korzeniowski", "Odsłonięcie": "26-09-1993", "Materiał": "grani-kamienie i głazy polne, brąz (krzyż, krata, łuski-plakietki)", "Wymiary": "8 m wys., ponad 20 m dług.", "Forma": "na zboczu głazu, kompozycja kamiennych, granitowych głazów z krzyżem i rozerwaną kratą", "Pochodzenie danych": "BGiK", "Aktualność danych": "styczeń 2015"}}, {"type": "Feature", "_id": "AAJ+WaAABAANo5PAAA", "geometry": {"type": "Point", "coordinates": [21.02206, 52.19575]}, "properties": {"Nazwa": "pomnik Ofiar bombardowania szpitala przez hitlerowców", "Dzielnica": "Mokotów", "Autor": "brak danych", "Odsłonięcie": " ", "Materiał": "brak danych", "Wymiary": "brak danych", "Forma": "Płyty z dedykacją", "Pochodzenie danych": "BGiK", "Aktualność danych": "styczeń 2015"}}, {"type": "Feature", "_id": "AAJ+WaAABAANo5PAAB", "geometry": {"type": "Point", "coordinates": [21.00364, 52.24108]}, "properties": {"Nazwa": "rzeźba Wisła i Wołga", "Dzielnica": "Śródmieście", "Autor": "Teresa Brzóskiewicz", "Odsłonięcie": "1985", "Materiał": "brak danych", "Wymiary": "brak danych", "Forma": "brak danych", "Pochodzenie danych": "BGiK", "Aktualność danych": "styczeń 2015"}}, {"type": "Feature", "_id": "AAJ+WaAABAANo5PAAC", "geometry": {"type": "Point", "coordinates": [21.12813, 52.25306]}, "properties": {"Nazwa": "pomnik Bohaterów poległych w obronie Ojczyzny 25 lutego 1831 roku w bitwie z Moskalami pod Olszynką Grochowską", "Dzielnica": "Rembertów", "Autor": "brak danych", "Odsłonięcie": "2007", "Materiał": "brak danych", "Wymiary": "brak danych", "Forma": "Głaż z umieszczoną na nim tablicą pamiątkową w formie krzyża", "Pochodzenie danych": "BGiK", "Aktualność danych": "styczeń 2015"}}, {"type": "Feature", "_id": "AAJ+WaAABAANo5PAAD", "geometry": {"type": "Point", "coordinates": [21.00911, 52.23723]}, "properties": {"Nazwa": "rzeźba Chłopiec z krokodylem", "Dzielnica": "Śródmieście", "Autor": "Stanisław Jackowski", "Odsłonięcie": "1930", "Materiał": "brąz", "Wymiary": "brak danych", "Forma": "przedstawia nagiego chłopca", "Pochodzenie danych": "BGiK", "Aktualność danych": "styczeń 2015"}}, {"type": "Feature", "_id": "AAJ+WaAABAANo5PAAE", "geometry": {"type": "Point", "coordinates": [21.03452, 52.26314]}, "properties": {"Nazwa": "pomnik Pomordowanych w Więzieniu Praskim", "Dzielnica": "Praga-Północ", "Autor": "Dariusz Kowalski, Sławomir Korzenioski", "Odsłonięcie": "30-09-2001", "Materiał": "brąz (rzeźba), granit (pylon)", "Wymiary": "2,60 m wys. (rzeźba), ok. 7,5 m wys. (pylon)", "Forma": "rzeźba mężczyzny z rozłożonymi ramionami, rozsuwającego bryły potężnych polonów i kratę więzienia", "Pochodzenie danych": "BGiK", "Aktualność danych": "styczeń 2015"}}, {"type": "Feature", "_id": "AAJ+WaAABAANo5PAAF", "geometry": {"type": "Point", "coordinates": [21.01412, 52.24139]}, "properties": {"Nazwa": "pomnik marsz. Józefa Piłsudskiego", "Dzielnica": "Śródmieście", "Autor": "Tadeusz Łodziana", "Odsłonięcie": "14-08-1995", "Materiał": "brąz (rzeźba), ok. 4 m wys. (cokół)", "Wymiary": "3 m wys. (rzeźba), ok. 4 m wys. (cokół)", "Forma": "postać stojąca w płaszczu, wsparta na szabli, na cokole", "Pochodzenie danych": "BGiK", "Aktualność danych": "styczeń 2015"}}, {"type": "Feature", "_id": "AAJ+WaAABAANo5PAAG", "geometry": {"type": "Point", "coordinates": [21.01356, 52.24879]}, "properties": {"Nazwa": "pomnik Stanisława Małachowskiego", "Dzielnica": "Śródmieście", "Autor": "Bertel Thorvaldsen (szkic), Franciszek Maksymilian Laboureur (rzeźba), Józef Trenarowski (rekonstrukcja)", "Materiał": "marmur", "Wymiary": "brak danych", "Forma": "Trzy postacie - statua Małachowskiego oraz stojący niżej zołnierz i płacząca niewiasta symbolizująca Ojczyznę", "Pochodzenie danych": "BGiK", "Aktualność danych": "styczeń 2015"}}, {"type": "Feature", "_id": "AAJ+WaAABAANo5PAAH", "geometry": {"type": "Point", "coordinates": [21.13811, 52.22966]}, "properties": {"Nazwa": "pomnik marsz. Józefa Piłsudskiego", "Dzielnica": "Wawer", "Odsłonięcie": "01-09-1930, 19-03-1994", "Materiał": "brąz (plakietka i tabliczki), cement metalizowany brazem (orzeł), granit (cokół)", "Wymiary": "60 cm wys. (orzeł), 4m wys. ) cokół", "Forma": "brak danych", "Pochodzenie danych": "BGiK", "Aktualność danych": "styczeń 2015"}}, {"type": "Feature", "_id": "AAJ+WaAABAANo5PAAI", "geometry": {"type": "Point", "coordinates": [21.03597, 52.21499]}, "properties": {"Nazwa": "pomnik Ignacego Jana Paderewskiego", "Dzielnica": "Śródmieście", "Autor": "Alfons Karny", "Odsłonięcie": " ", "Materiał": "brąz (rzeźba), piaskowiec (cokół)", "Wymiary": "ok. 2 m wys.", "Forma": "popiersie na cokole", "Pochodzenie danych": "BGiK", "Aktualność danych": "styczeń 2015"}}, {"type": "Feature", "_id": "AAJ+WaAABAANo5PAAJ", "geometry": {"type": "Point", "coordinates": [21.13342, 52.23559]}, "properties": {"Nazwa": "pomnik gen. Franciszka Żymirskiego", "Dzielnica": "Wawer", "Autor": "Stanisław Sikora", "Odsłonięcie": "06-12-1987", "Materiał": "brąz (rzeźba), kostki granitowe (cokół)", "Wymiary": "ok. 3 m wys.", "Forma": "popiersie na cokole", "Pochodzenie danych": "BGiK", "Aktualność danych": "styczeń 2015"}}, {"type": "Feature", "_id": "AAJ+WaAABAANo5PAAK", "geometry": {"type": "Point", "coordinates": [21.0267, 52.21774]}, "properties": {"Nazwa": "pomnik Michała Szuberta", "Dzielnica": "Śródmieście", "Autor": "Franciszek Roth, rekonstrukcja Ferdynand Jarocha", "Odsłonięcie": "03-05-1917, 05-05-1962", "Materiał": "brąz (rzeźba), kamień (cokół)", "Wymiary": "brak danych", "Forma": "popiersie na cokole", "Pochodzenie danych": "BGiK", "Aktualność danych": "styczeń 2015"}}, {"type": "Feature", "_id": "AAJ+WaAABAANpMBAAA", "geometry": {"type": "Point", "coordinates": [21.12122, 52.25191]}, "properties": {"Nazwa": "pomnik Poległych w bitwie pod Grochowem", "Dzielnica": "Praga-Południe", "Autor": "nieznany", "Odsłonięcie": "poświęcenie-13-07-1916", "Materiał": "metal (krzyż), kamień (obramienie grobu), piaskowiec (tablice)", "Wymiary": "ok. 4 m wys. (krzyż)", "Forma": "grób z krzyżem i dwiema tablicami z napisami", "Pochodzenie danych": "BGiK", "Aktualność danych": "styczeń 2015"}}, {"type": "Feature", "_id": "AAJ+WaAABAANpMBAAB", "geometry": {"type": "Point", "coordinates": [21.01418, 52.24506]}, "properties": {"Nazwa": "figura Matki Boskiej Passawskiej", "Dzielnica": "Śródmieście", "Autor": "Giuseppe Bellottiego", "Odsłonięcie": "1683", "Materiał": "piaskowiec", "Wymiary": "brak danych", "Forma": "rzeźba wzorowana na cudownej statui Maryi Panny spod bawarskiego miasta Passau", "Pochodzenie danych": "BGiK", "Aktualność danych": "styczeń 2015"}}, {"type": "Feature", "_id": "AAJ+WaAABAANpMBAAC", "geometry": {"type": "Point", "coordinates": [20.99304, 52.23827]}, "properties": {"Nazwa": "pomnik Żołnierzy Armii Krajowej wywiezionych z Polski w 1944 r. do łagrów sowieckich", "Dzielnica": "Wola", "Autor": "brak danych", "Odsłonięcie": "1966", "Materiał": "kamień", "Wymiary": "brak danych", "Forma": "Głaz z dedykacją na umieszczonej niżej tablicy", "Pochodzenie danych": "BGiK", "Aktualność danych": "styczeń 2015"}}, {"type": "Feature", "_id": "AAJ+WaAABAANpMBAAD", "geometry": {"type": "Point", "coordinates": [20.89874, 52.25312]}, "properties": {"Nazwa": "pomnik Floriana Grabczyńskiego", "Dzielnica": "Bemowo", "Autor": "brak danych", "Odsłonięcie": "01-06-2001", "Materiał": "brąz (rzeźba), kamień (cokół)", "Wymiary": "niewielkich rozmiarów brązowe popiersie umieszczono na okazałym dwumetrowym kamiennym cokole", "Forma": "popiersie na cokole", "Pochodzenie danych": "BGiK", "Aktualność danych": "styczeń 2015"}}, {"type": "Feature", "_id": "AAJ+WaAABAANpMBAAE", "geometry": {"type": "Point", "coordinates": [21.06577, 52.13768]}, "properties": {"Nazwa": "figura bł. Władysława z Gielniowa", "Dzielnica": "Ursynów", "Autor": "Dominik Wdowski, Katarzyny Kusak", "Odsłonięcie": "11-11-2005", "Materiał": "mosiądz", "Wymiary": "ok. 3 m wys.", "Forma": "pomnik przedstawia idącego bł. Władysława w bernardyńskim habicie z podniesionym krzyżem w ręku", "Pochodzenie danych": "BGiK", "Aktualność danych": "styczeń 2015"}}, {"type": "Feature", "_id": "AAJ+WaAABAANpMBAAF", "geometry": {"type": "Point", "coordinates": [21.03534, 52.22839]}, "properties": {"Nazwa": "pomnik Powstańców Czerniakowa i Żołnierzy I Armii WP", "Dzielnica": "Śródmieście", "Autor": "Tadeusz Antoszczak", "Odsłonięcie": "31-07-1957", "Materiał": "piaskowiec", "Wymiary": "ok. 4 m wys.", "Forma": "kompozycja z prostych brył geometrycznych, z płaskorzeźbą przedstawiającą sceny z walk powstańczych i tablica na froncie", "Pochodzenie danych": "BGiK", "Aktualność danych": "styczeń 2015"}}, {"type": "Feature", "_id": "AAJ+WaAABAANpMBAAG", "geometry": {"type": "Point", "coordinates": [20.98453, 52.26693]}, "properties": {"Nazwa": "pomnik Osadników Wojskowych Kresów Wschodnich", "Dzielnica": "Żoliborz", "Autor": "brak danych", "Odsłonięcie": " ", "Materiał": "kamień", "Wymiary": "brak danych", "Forma": "Głaz z upamiętniającym napisem", "Pochodzenie danych": "BGiK", "Aktualność danych": "styczeń 2015"}}, {"type": "Feature", "_id": "AAJ+WaAABAANpMBAAH", "geometry": {"type": "Point", "coordinates": [21.02997, 52.22082]}, "properties": {"Nazwa": "rzeźba Bez tytułu", "Dzielnica": "Śródmieście", "Autor": "nieznany", "Odsłonięcie": "1975", "Materiał": "brak danych", "Wymiary": "brak danych", "Forma": "brak danych", "Pochodzenie danych": "BGiK", "Aktualność danych": "styczeń 2015"}}, {"type": "Feature", "_id": "AAJ+WaAABAANpMBAAI", "geometry": {"type": "Point", "coordinates": [21.02409, 52.26096]}, "properties": {"Nazwa": "pomnik Józefa Szanajcy", "Dzielnica": "Praga-Północ", "Autor": "Bohdan Lachert", "Odsłonięcie": "24-09-1979", "Materiał": "brąz (rzeźba), granit (postument-ściana)", "Wymiary": "ok. 2,5 m wys. (ściana)", "Forma": "popiersie umieszczone w 2/3 wysokości postumentu", "Pochodzenie danych": "BGiK", "Aktualność danych": "styczeń 2015"}}, {"type": "Feature", "_id": "AAJ+WaAABAANpMBAAJ", "geometry": {"type": "Point", "coordinates": [21.00233, 52.24285]}, "properties": {"Nazwa": "pomnik Juliusza Słowackiego", "Dzielnica": "Śródmieście", "Autor": "Edwart Wittig", "Odsłonięcie": "29-09-2001", "Materiał": "brąz (rzeźba), granit uno verde (cokół)", "Wymiary": "6 m wys. (rzeźba), całość 12 m wys., waga 2,5 t (rzeźba)", "Forma": "postać na cokole", "Pochodzenie danych": "BGiK", "Aktualność danych": "styczeń 2015"}}, {"type": "Feature", "_id": "AAJ+WaAABAANpMBAAK", "geometry": {"type": "Point", "coordinates": [20.99404, 52.21133]}, "properties": {"Nazwa": "pomnik Szczęśliwego Psa", "Dzielnica": "Ochota", "Autor": "Bogna Czechowska", "Odsłonięcie": "02-10-2004", "Materiał": "brąż", "Wymiary": "naturalne", "Forma": "pomnik przedstawia siedzącego psa naturalnej wielkości rasy Golden Retriever", "Pochodzenie danych": "BGiK", "Aktualność danych": "styczeń 2015"}}, {"type": "Feature", "_id": "AAJ+WaAABAANpMCAAA", "geometry": {"type": "Point", "coordinates": [21.0121, 52.23967]}, "properties": {"Nazwa": "rzeźba Chłopski król", "Dzielnica": "Śródmieście", "Autor": "brak danych", "Odsłonięcie": " ", "Materiał": "brak danych", "Wymiary": "brak danych", "Forma": "brak danych", "Pochodzenie danych": "BGiK", "Aktualność danych": "styczeń 2015"}}, {"type": "Feature", "_id": "AAJ+WaAABAANpMCAAB", "geometry": {"type": "Point", "coordinates": [20.95191, 52.25711]}, "properties": {"Nazwa": "Zgrupowanie AK Kryska", "Dzielnica": "Żoliborz", "Autor": "", "Odsłonięcie": "", "Materiał": "", "Wymiary": "", "Forma": "", "Pochodzenie danych": "BGiK", "Aktualność danych": "czerwiec 2017"}}, {"type": "Feature", "_id": "AAJ+WaAABAANpMCAAC", "geometry": {"type": "Point", "coordinates": [21.02775, 52.21424]}, "properties": {"Nazwa": "pomnik Franciszka Liszta", "Dzielnica": "Śródmieście", "Autor": "Katalin Gero", "Odsłonięcie": "12 VIII 2011 r.", "Materiał": "brąz", "Wymiary": "", "Forma": "popiersie na cokole", "Pochodzenie danych": "BGiK", "Aktualność danych": "czerwiec 2018"}}, {"type": "Feature", "_id": "AAJ+WaAABAANpMCAAD", "geometry": {"type": "Point", "coordinates": [21.06302, 52.22932]}, "properties": {"Nazwa": "pomnik Stefana Starzyńskiego", "Dzielnica": "Praga-Południe", "Autor": "Ludwik Nitschow", "Odsłonięcie": "ustawiony 17-12-1980, odsłonięty 16-01-1981 w Ogrodzie Saskim, 5 września 2008 roku przeniesiony do Szkoły Podstawowej nr 143 przy Al. Stanów Zjednoczonych 27", "Materiał": "brąz (rzeźba), żelbet fragment przedwojennego budynku MSZ-cokół)", "Wymiary": "całość ok. 3 m wys. rzeźba ok. 2 m wys.", "Forma": "postać stojąca na cokole,", "Pochodzenie danych": "BGiK", "Aktualność danych": "maj 2022"}}, {"type": "Feature", "_id": "AAJ+WaAABAANpMCAAE", "geometry": {"type": "Point", "coordinates": [21.00468, 52.24897]}, "properties": {"Nazwa": "pomnik „Kobietom Powstania Warszawskiego”", "Dzielnica": "Śródmieście", "Autor": "Monika Osiecka", "Odsłonięcie": "02-10-2021", "Materiał": "brąz", "Wymiary": "ok. 2m wys.", "Forma": "trzy kobiety, w różnym wieku, trzymają się za ręce", "Pochodzenie danych": "BGiK", "Aktualność danych": "maj 2022"}}, {"type": "Feature", "_id": "AAJ+WaAABAANpMCAAF", "geometry": {"type": "Point", "coordinates": [21.07147, 52.14324]}, "properties": {"Nazwa": "Sarkofag Natalii Sanguszkowej z Potockich", "Dzielnica": "Wilanów", "Autor": "Ludwik Kaufmann", "Odsłonięcie": "1834-38", "Materiał": "", "Wymiary": "", "Forma": "", "Pochodzenie danych": "BGiK", "Aktualność danych": "kwiecień 2022"}}, {"type": "Feature", "_id": "AAJ+WaAABAANpMCAAG", "geometry": {"type": "Point", "coordinates": [21.07165, 52.14308]}, "properties": {"Nazwa": "Most Mauretański", "Dzielnica": "Wilanów", "Autor": "Henryk Marconi", "Odsłonięcie": "1834-38", "Materiał": "", "Wymiary": "", "Forma": "most", "Pochodzenie danych": "BGiK", "Aktualność danych": "kwiecień 2022"}}, {"type": "Feature", "_id": "AAJ+WaAABAANpMCAAH", "geometry": {"type": "Point", "coordinates": [20.95271, 52.25885]}, "properties": {"Nazwa": "Pomnik Dowboczyków - miniatura kopca usypanego w Bobrujsku", "Dzielnica": "Żoliborz", "Autor": "", "Odsłonięcie": "", "Materiał": "", "Wymiary": "", "Forma": "", "Pochodzenie danych": "BGiK", "Aktualność danych": "czerwiec 2017"}}, {"type": "Feature", "_id": "AAJ+WaAABAANpMCAAI", "geometry": {"type": "Point", "coordinates": [21.00323, 52.24207]}, "properties": {"Nazwa": "pomnik Papieża Jana Pawła II", "Dzielnica": "Śródmieście", "Autor": "Gustaw Zemła", "Odsłonięcie": "27-08-1992", "Materiał": "brąz (rzeźba), granit (cokół)", "Wymiary": "3 m wys. (rzeźba), ok. 1 m wys. (cokół)", "Forma": "postać stojąca na niskim cokole, we wnęce ściany", "Pochodzenie danych": "BGiK", "Aktualność danych": "styczeń 2015"}}, {"type": "Feature", "_id": "AAJ+WaAABAANpMCAAJ", "geometry": {"type": "Point", "coordinates": [21.02597, 52.23228]}, "properties": {"Nazwa": "pomnik Wojskowej Służby Kobiet", "Dzielnica": "Śródmieście", "Autor": "Jan Bohdan Chmielewski oraz Zbigniew Wilma", "Odsłonięcie": "9-04-2007", "Materiał": "brak danych", "Wymiary": "brak danych", "Forma": "postać kobiety w mundurze", "Pochodzenie danych": "BGiK", "Aktualność danych": "styczeń 2015"}}, {"type": "Feature", "_id": "AAJ+WaAABAANpMCAAK", "geometry": {"type": "Point", "coordinates": [21.03449, 52.25511]}, "properties": {"Nazwa": "pomnik Polsko-Radzieckiego Braterstwa Broni (zdemontowany!)", "Dzielnica": "Praga-Północ", "Autor": "projekt-mjr Koralew; realizacja Stanisław Sikora, Stefan Momot, Józef Trenarowski i Józef Gazy oraz Bohdan Lachert, przy współpracy Jerzego Jarunkiewicza", "Odsłonięcie": "18-11-1945", "Materiał": "braz (rzeźby), marmur kielecki (cokóło0", "Wymiary": "ok. 5m wys.", "Forma": "grupa 3 żołnierzy na cokole, u którego stóp na narożach cztery postacie żołnierzy polskich i radzieckich", "Pochodzenie danych": "BGiK", "Aktualność danych": "styczeń 2015"}}, {"type": "Feature", "_id": "AAJ+WaAABAANpMCAAL", "geometry": {"type": "Point", "coordinates": [21.00957, 52.24927]}, "properties": {"Nazwa": "pomnik Małego Powstańca", "Dzielnica": "Śródmieście", "Autor": "Jerzy Jarnuszkiewicz", "Odsłonięcie": "01-10-1983", "Materiał": "brąz (rzeźba)", "Wymiary": "brak danych", "Forma": "postać kilkuletniego chłopca z większym od niego karabinem przewieszonym przez ramię, w za dużych butach i płaszczu, w opadającym na oczy hełmie z widocznym orzełkiem i biało-czerwoną opaską", "Pochodzenie danych": "BGiK", "Aktualność danych": "styczeń 2015"}}, {"type": "Feature", "_id": "AAJ+WaAABAANpMDAAA", "geometry": {"type": "Point", "coordinates": [20.95449, 52.26031]}, "properties": {"Nazwa": "Pomnik żołnierzy Batalionów Chłopskich", "Dzielnica": "Żoliborz", "Autor": "", "Odsłonięcie": "", "Materiał": "", "Wymiary": "", "Forma": "", "Pochodzenie danych": "BGiK", "Aktualność danych": "czerwiec 2017"}}, {"type": "Feature", "_id": "AAJ+WaAABAANpMDAAB", "geometry": {"type": "Point", "coordinates": [21.04554, 52.16441]}, "properties": {"Nazwa": "pomnik Władysława Grabskiego", "Dzielnica": "Ursynów", "Autor": "brak danych", "Odsłonięcie": "2006 r.", "Materiał": "brak danych", "Wymiary": "brak danych", "Forma": "na głazie umieszczona tablica z wizerunkiem i okolicznościowym tekstem", "Pochodzenie danych": "BGiK", "Aktualność danych": "styczeń 2015"}}, {"type": "Feature", "_id": "AAJ+WaAABAANpMDAAC", "geometry": {"type": "Point", "coordinates": [21.08713, 52.16592]}, "properties": {"Nazwa": "pomnik Jana Kochanowskiego", "Dzielnica": "Wilanów", "Autor": "Jakub Tatarkiewicz", "Odsłonięcie": " ", "Materiał": "brak danych", "Wymiary": "brak danych", "Forma": "postać siedząca, szukając natchnienia w koronach dzrew", "Pochodzenie danych": "BGiK", "Aktualność danych": "styczeń 2015"}}, {"type": "Feature", "_id": "AAJ+WaAABAANpMDAAD", "geometry": {"type": "Point", "coordinates": [21.05519, 52.13649]}, "properties": {"Nazwa": "pomnik W hołdzie Dzieciom Warszawy", "Dzielnica": "Ursynów", "Autor": "brak danych", "Odsłonięcie": "09-05-2005", "Materiał": "kamień", "Wymiary": "brak danych", "Forma": "kamień", "Pochodzenie danych": "BGiK", "Aktualność danych": "styczeń 2015"}}, {"type": "Feature", "_id": "AAJ+WaAABAANpMDAAE", "geometry": {"type": "Point", "coordinates": [21.01089, 52.25403]}, "properties": {"Nazwa": "pomnik-ławeczka Williama Heerleina Lindleya", "Dzielnica": "Śródmieście", "Autor": "Norbert Sarnecki przy współpracy Anny Sarneckiej", "Odsłonięcie": "7-05-2011", "Materiał": "brak danych", "Wymiary": "brak danych", "Forma": "Ławka z dwóch pomp oraz rur wodociągowych tworzących siedzisko i oparcie ławki, Lindley stoi obok opierając się na zaworze wodociągowym", "Pochodzenie danych": "BGiK", "Aktualność danych": "styczeń 2015"}}, {"type": "Feature", "_id": "AAJ+WaAABAANpMDAAF", "geometry": {"type": "Point", "coordinates": [20.94296, 52.22681]}, "properties": {"Nazwa": "pomnik Lotników RAF", "Dzielnica": "Wola", "Autor": "nieznany", "Odsłonięcie": "1997", "Materiał": "granit, brąz (plakiety)", "Wymiary": "ok. 1 m wys.", "Forma": "kompozycja złożona z dwóch trójkątów z plakietkami i wyrytym napisem", "Pochodzenie danych": "BGiK", "Aktualność danych": "styczeń 2015"}}, {"type": "Feature", "_id": "AAJ+WaAABAANpMDAAG", "geometry": {"type": "Point", "coordinates": [21.00301, 52.23562]}, "properties": {"Nazwa": "pomnik Broń Polski Podziemnej", "Dzielnica": "Śródmieście", "Autor": "brak danych", "Odsłonięcie": " ", "Materiał": "kamień", "Wymiary": "brak danych", "Forma": "Głaz z dedykacją żołnierzom państwa podziemnego na północnej stronie oraz imitacją naboju widoczną od strony południowej", "Pochodzenie danych": "BGiK", "Aktualność danych": "styczeń 2015"}}, {"type": "Feature", "_id": "AAJ+WaAABAANpMDAAH", "geometry": {"type": "Point", "coordinates": [21.03398, 52.21089]}, "properties": {"Nazwa": "zegar słoneczny", "Dzielnica": "Śródmieście", "Autor": "Adam Myjak", "Odsłonięcie": "2012 r.", "Materiał": "", "Wymiary": "", "Forma": "", "Pochodzenie danych": "BGiK", "Aktualność danych": "czerwiec 2018"}}, {"type": "Feature", "_id": "AAJ+WaAABAANpMDAAI", "geometry": {"type": "Point", "coordinates": [21.22074, 52.22145]}, "properties": {"Nazwa": "głaz-pomnik \"W hołdzie żołnierzom Rzeczypospolitej\"", "Dzielnica": "Wesoła", "Autor": "", "Odsłonięcie": "", "Materiał": "", "Wymiary": "", "Forma": "głaz narzutowy z napisem", "Pochodzenie danych": "BGiK", "Aktualność danych": "kwiecień 2017"}}, {"type": "Feature", "_id": "AAJ+WaAABAANpMDAAJ", "geometry": {"type": "Point", "coordinates": [20.9582, 52.28445]}, "properties": {"Nazwa": "pomnik marsz. Józefa Piłsudskiego", "Dzielnica": "Bielany", "Autor": "Alfons Karny (rzeźba), Jerzy Kalina (cokół)", "Odsłonięcie": "27-07-1990", "Materiał": "różowy granit (rzeźba), szary granit (cokół)", "Wymiary": "ok. 70-80 cm wys. (rzeźba), ok. 3 m wys. (cokół)", "Forma": "popiersie na cokole, od frontu daty 1990, 1949", "Pochodzenie danych": "BGiK", "Aktualność danych": "styczeń 2015"}}, {"type": "Feature", "_id": "AAJ+WaAABAANpMDAAK", "geometry": {"type": "Point", "coordinates": [21.00786, 52.25355]}, "properties": {"Nazwa": "monolit Miejsce uświęcone krwią Polaków poległych za wolność Ojczyzny", "Dzielnica": "Śródmieście", "Autor": "brak danych", "Odsłonięcie": "1956", "Materiał": "brak danych", "Wymiary": "brak danych", "Forma": "brak danych", "Pochodzenie danych": "BGiK", "Aktualność danych": "styczeń 2015"}}, {"type": "Feature", "_id": "AAJ+WaAABAANpMDAAL", "geometry": {"type": "Point", "coordinates": [21.0169, 52.2417]}, "properties": {"Nazwa": "pomnik ks. Jana Twardowskiego", "Dzielnica": "Śródmieście", "Autor": "Wojciech Gryniewicz", "Odsłonięcie": "10-10-2013", "Materiał": "brąz", "Wymiary": "brak danych", "Forma": "Ławka pomnikowa", "Pochodzenie danych": "BGiK", "Aktualność danych": "styczeń 2015"}}, {"type": "Feature", "_id": "AAJ+WaAABAANpMEAAA", "geometry": {"type": "Point", "coordinates": [21.03153, 52.21512]}, "properties": {"Nazwa": "zegar słoneczny z Satyrem", "Dzielnica": "Śródmieście", "Autor": "Jan Chryzostom Redler", "Odsłonięcie": "około 1778 roku", "Materiał": "", "Wymiary": "", "Forma": "Postać siedzącego satyra dźwigającego tarczę.", "Pochodzenie danych": "BGiK", "Aktualność danych": "czerwiec 2018"}}, {"type": "Feature", "_id": "AAJ+WaAABAANpMEAAB", "geometry": {"type": "Point", "coordinates": [20.99139, 52.24952]}, "properties": {"Nazwa": "pomnik Willy'ego Brandta", "Dzielnica": "Śródmieście", "Autor": "Piotr Drachal", "Odsłonięcie": "2000", "Materiał": "czerwona cegła", "Wymiary": "wys. ok. 3 m", "Forma": "pomnik w formie muru, na czołowej, południowej ścianie pomnika znajduje się tablica z brązu z płaskorzeźbą, na ścianie od strony zachodniej umieszczono tablicę z informacjami o odsłonięciu monumentu", "Pochodzenie danych": "BGiK", "Aktualność danych": "styczeń 2015"}}, {"type": "Feature", "_id": "AAJ+WaAABAANpMEAAC", "geometry": {"type": "Point", "coordinates": [21.04121, 52.22865]}, "properties": {"Nazwa": "pomnik Chwała Saperom", "Dzielnica": "Śródmieście", "Autor": "Stanisław Kulon", "Odsłonięcie": "08-05-1975", "Materiał": "stal, blacha (pylony), brąz (rzeźba sapera i płaskorzeźby), granit (postument), żelazobeton (rzeźba w Wiśle)", "Wymiary": "pylon 17 m wys., rzeźba 2,5 m wys., płaskorzeźba 2,1 m, rzeźba w Wiśle ok. 6,5 m wys.", "Pochodzenie danych": "BGiK", "Aktualność danych": "styczeń 2015"}}, {"type": "Feature", "_id": "AAJ+WaAABAANpMEAAD", "geometry": {"type": "Point", "coordinates": [21.074, 52.16481]}, "properties": {"Nazwa": "pomnik Króla Jana III Sobieskiego", "Dzielnica": "Wilanów", "Autor": "Edward Jeliński (rzeźba), Tadeusz Dębski (buława)", "Odsłonięcie": "09-09-2001, buława 15-09-2001", "Materiał": "brąz (rzeźba), granit (cokół), mosiądz (buława)", "Wymiary": "ok. 3 m wys. (rzeźba), buława 9 m wys., podstawa 78 cm, waga 2,5 t", "Forma": "król w pozycji siedzącej w fotelu, obok stojąca Marysieńka, u stóp króla 2 wyżły; na cokole-herb Sobieskich, Janina i nazwiska darczyńców; 2 część pomnika stanowi stojąca buława", "Pochodzenie danych": "BGiK", "Aktualność danych": "kwiecień 2017"}}, {"type": "Feature", "_id": "AAJ+WaAABAANpMEAAE", "geometry": {"type": "Point", "coordinates": [21.01003, 52.24901]}, "properties": {"Nazwa": "rzeźba Oświęcim II", "Dzielnica": "Śródmieście", "Autor": "Franciszek Strynkiewicz", "Odsłonięcie": "1957", "Materiał": "brąz (rzeźba), piaskowiec (cokół)", "Wymiary": "ok. 2 m.", "Forma": "Rozkładające się ciało nagiej kobiety z niemowlęciem na rękach, w pozie pełnej bólu i grozy", "Pochodzenie danych": "BGiK", "Aktualność danych": "styczeń 2015"}}, {"type": "Feature", "_id": "AAJ+WaAABAANpMEAAF", "geometry": {"type": "Point", "coordinates": [20.98767, 52.23074]}, "properties": {"Nazwa": "pomnik Ewakuacji Bojowników Getta Warszawskiego", "Dzielnica": "Wola", "Autor": "Konrad Kucza-Kuczyński, Jan Kucza-Kuczyński i Maksymilian Biskupski", "Odsłonięcie": "13-05-2010", "Materiał": "brąz", "Wymiary": "1,8 m wys,", "Forma": "Ścięty skośnie walec symbolizujący wejście do kanału, wewnątrz znajduje się Gwiazda Dawida, na ścianie umieszczono metalowe stopnie, do których przytwierdzone są wyrzeźbione ludzkie dłonie", "Pochodzenie danych": "BGiK", "Aktualność danych": "styczeń 2015"}}, {"type": "Feature", "_id": "AAJ+WaAABAANpMEAAG", "geometry": {"type": "Point", "coordinates": [21.04901, 52.25515]}, "properties": {"Nazwa": "kapliczka  przydrożna z figurą Matki Boskiej z Dzieciątkiem z 1908 roku", "Dzielnica": "Praga-Północ", "Autor": "", "Odsłonięcie": "", "Materiał": "", "Wymiary": "", "Forma": "figura Matki Boskiej z Dzieciątkiem", "Pochodzenie danych": "BGiK", "Aktualność danych": "lipiec 2016"}}, {"type": "Feature", "_id": "AAJ+WaAABAANpMEAAH", "geometry": {"type": "Point", "coordinates": [21.0261, 52.22774]}, "properties": {"Nazwa": "pomnik związany z Powstaniem Warszawskim", "Dzielnica": "Śródmieście", "Autor": "", "Odsłonięcie": "8 września 1984 r.", "Materiał": "kamień, granit", "Wymiary": " 86 x 46 cm", "Forma": "głaz z płytą granitową", "Pochodzenie danych": "BGiK", "Aktualność danych": "lipiec 2016"}}, {"type": "Feature", "_id": "AAJ+WaAABAANpMEAAI", "geometry": {"type": "Point", "coordinates": [21.01317, 52.24137]}, "properties": {"Nazwa": "Krzyż Papieski", "Dzielnica": "Śródmieście", "Autor": " Marek Kuciński, Jerzy Mierzwiak i Natalia Wilczak", "Odsłonięcie": "2009", "Materiał": "brak danych", "Wymiary": "brak danych", "Forma": "brak danych", "Pochodzenie danych": "BGiK", "Aktualność danych": "styczeń 2015"}}, {"type": "Feature", "_id": "AAJ+WaAABAANpMEAAJ", "geometry": {"type": "Point", "coordinates": [21.03059, 52.21679]}, "properties": {"Nazwa": "Pies As", "Dzielnica": "Śródmieście", "Autor": "Czesław Makowski", "Odsłonięcie": "", "Materiał": "", "Wymiary": "", "Forma": "Rzeźba przedstawia śpiącego wyżła Asa, bohatera noweli Adolfa Dygasińskiego.", "Pochodzenie danych": "BGiK", "Aktualność danych": "maj 2018"}}, {"type": "Feature", "_id": "AAJ+WaAABAANpMFAAA", "geometry": {"type": "Point", "coordinates": [21.00614, 52.23826]}, "properties": {"Nazwa": "kamień upamiętniający miejsce, w którym rozpoczął działalność Teatr Narodowy", "Dzielnica": "Śródmieście", "Autor": "brak danych", "Odsłonięcie": " ", "Materiał": "kamień", "Wymiary": "brak danych", "Forma": "Głaz z upamiętniającym napisem", "Pochodzenie danych": "BGiK", "Aktualność danych": "styczeń 2015"}}, {"type": "Feature", "_id": "AAJ+WaAABAANpMFAAB", "geometry": {"type": "Point", "coordinates": [21.00505, 52.24206]}, "properties": {"Nazwa": "monolit Miejsce uświęcone krwią Polaków poległych za wolność Ojczyzny", "Dzielnica": "Śródmieście", "Autor": "brak danych", "Odsłonięcie": "1956", "Materiał": "brak danych", "Wymiary": "brak danych", "Forma": "brak danych", "Pochodzenie danych": "BGiK", "Aktualność danych": "styczeń 2015"}}, {"type": "Feature", "_id": "AAJ+WaAABAANpMFAAC", "geometry": {"type": "Point", "coordinates": [21.03674, 52.21334]}, "properties": {"Nazwa": "pomnik Stanisława Wyspiańskiego", "Dzielnica": "Śródmieście", "Autor": "replika rzeźby Apolinarego Głowińskiego", "Odsłonięcie": "2004 r.", "Materiał": "gips, granit", "Wymiary": "", "Forma": "gipsowe popiersie, granitowy postument", "Pochodzenie danych": "BGiK", "Aktualność danych": "czerwiec 2018"}}, {"type": "Feature", "_id": "AAJ+WaAABAANpMFAAD", "geometry": {"type": "Point", "coordinates": [21.01669, 52.23495]}, "properties": {"Nazwa": "głaz upamiętniający siedzibę władz PPS i organizowania ochotniczych batalionów obrony Warszawy", "Dzielnica": "Śródmieście", "Autor": "brak danych", "Odsłonięcie": " ", "Materiał": "kamień", "Wymiary": "brak danych", "Forma": "Głaz z upamiętniającym napisem", "Pochodzenie danych": "BGiK", "Aktualność danych": "styczeń 2015"}}, {"type": "Feature", "_id": "AAJ+WaAABAANpMFAAE", "geometry": {"type": "Point", "coordinates": [21.08344, 52.16486]}, "properties": {"Nazwa": "pomnik Króla Jana III Sobieskiego", "Dzielnica": "Wilanów", "Autor": "Edward Jeliński (rzeźba), Tadeusz Dębski (buława)", "Odsłonięcie": "09-09-2001, buława 15-09-2001", "Materiał": "brąz (rzeźba), granit (cokół), mosiądz (buława)", "Wymiary": "ok. 3 m wys. (rzeźba), buława 9 m wys., podstawa 78 cm, waga 2,5 t", "Forma": "król w pozycji siedzącej w fotelu, obok stojąca Marysieńka, u stóp króla 2 wyżły; na cokole-herb Sobieskich, Janina i nazwiska darczyńców; 2 część pomnika stanowi stojąca buława", "Pochodzenie danych": "BGiK", "Aktualność danych": "kwiecień 2017"}}, {"type": "Feature", "_id": "AAJ+WaAABAANpMFAAF", "geometry": {"type": "Point", "coordinates": [20.90663, 52.23343]}, "properties": {"Nazwa": "pomnik Sándora Petőfiego", "Dzielnica": "Bemowo", "Autor": "Jerzy Teper", "Odsłonięcie": "14-03-2013", "Materiał": "kamień, brąz", "Wymiary": "brak danych", "Forma": "popiersie na cokole", "Pochodzenie danych": "BGiK", "Aktualność danych": "styczeń 2015"}}, {"type": "Feature", "_id": "AAJ+WaAABAANpMFAAG", "geometry": {"type": "Point", "coordinates": [20.95343, 52.26151]}, "properties": {"Nazwa": "Pamięci żołnierzy AK Batalionu  \"Bełt\"", "Dzielnica": "Żoliborz", "Autor": "", "Odsłonięcie": "", "Materiał": "", "Wymiary": "", "Forma": "", "Pochodzenie danych": "BGiK", "Aktualność danych": "czerwiec 2017"}}, {"type": "Feature", "_id": "AAJ+WaAABAANpMFAAH", "geometry": {"type": "Point", "coordinates": [20.96821, 52.22393]}, "properties": {"Nazwa": "pomnik Ofiar KL Warschau", "Dzielnica": "Wola", "Autor": "brak danych", "Odsłonięcie": " ", "Materiał": "brak danych", "Wymiary": "brak danych", "Forma": "Usypane z kamieni złamane na pół serce, krzyż i głaz z napisem pamiątkowym", "Pochodzenie danych": "BGiK", "Aktualność danych": "styczeń 2015"}}, {"type": "Feature", "_id": "AAJ+WaAABAANpMFAAI", "geometry": {"type": "Point", "coordinates": [20.95405, 52.26049]}, "properties": {"Nazwa": "W hołdzie poległym pod Lenino żołnierzom I Dywizji Piechoty Im. T. Kościuszki", "Dzielnica": "Żoliborz", "Autor": "", "Odsłonięcie": "", "Materiał": "", "Wymiary": "", "Forma": "", "Pochodzenie danych": "BGiK", "Aktualność danych": "czerwiec 2017"}}, {"type": "Feature", "_id": "AAJ+WaAABAANpMFAAJ", "geometry": {"type": "Point", "coordinates": [20.95242, 52.25881]}, "properties": {"Nazwa": "Harcerski Batalion \"Zośka\"", "Dzielnica": "Żoliborz", "Autor": "", "Odsłonięcie": "", "Materiał": "", "Wymiary": "", "Forma": "", "Pochodzenie danych": "BGiK", "Aktualność danych": "czerwiec 2017"}}, {"type": "Feature", "_id": "AAJ+WaAABAANpMFAAK", "geometry": {"type": "Point", "coordinates": [21.0226, 52.28587]}, "properties": {"Nazwa": "pomnik W hołdzie walczącym", "Dzielnica": "Targówek", "Autor": "brak danych", "Odsłonięcie": "1994", "Materiał": "brak danych", "Wymiary": "brak danych", "Forma": "Głaz z upamiętniającym napisem, obok zawieszona flaga polski", "Pochodzenie danych": "BGiK", "Aktualność danych": "styczeń 2015"}}, {"type": "Feature", "_id": "AAJ+WaAABAANpMFAAL", "geometry": {"type": "Point", "coordinates": [21.00594, 52.24153]}, "properties": {"Nazwa": "pomnik Marii Konopnickiej", "Dzielnica": "Śródmieście", "Autor": "Stanisław Kulon", "Odsłonięcie": "22-05-1966", "Materiał": "sjenit", "Wymiary": "2,5 m wys. (figura), 55 cm wys. (cokół)", "Forma": "brak danych", "Pochodzenie danych": "BGiK", "Aktualność danych": "styczeń 2015"}}, {"type": "Feature", "_id": "AAJ+WaAABAANpMGAAA", "geometry": {"type": "Point", "coordinates": [21.15533, 52.25482]}, "properties": {"Nazwa": "pomnik Więźniów obozów NKWD", "Dzielnica": "Rembertów", "Autor": "nieznany", "Odsłonięcie": "21-051995", "Materiał": "metal (krzyż), cegła (częsć archtektoniczna), czarny marmur (tablice)", "Wymiary": "ok. 8 m wys. (krzyż), ok. 4m wys. (część architektoniczna)", "Forma": "krzyż w narożnej obudowie architektonicznej, na niej trzy tablice", "Pochodzenie danych": "BGiK", "Aktualność danych": "styczeń 2015"}}, {"type": "Feature", "_id": "AAJ+WaAABAANpMGAAB", "geometry": {"type": "Point", "coordinates": [20.95142, 52.2572]}, "properties": {"Nazwa": "Grobowiec Karola Świerczewskiego", "Dzielnica": "Żoliborz", "Autor": "", "Odsłonięcie": "", "Materiał": "", "Wymiary": "", "Forma": "", "Pochodzenie danych": "BGiK", "Aktualność danych": "czerwiec 2017"}}, {"type": "Feature", "_id": "AAJ+WaAABAANpMGAAC", "geometry": {"type": "Point", "coordinates": [20.9775, 52.24138]}, "properties": {"Nazwa": "pomnik Żołnierzy Zgrupowania AK „Radosław”", "Dzielnica": "Wola", "Autor": "brak danych", "Odsłonięcie": "1994", "Materiał": "brak danych", "Wymiary": "brak danych", "Forma": "głaz z dedykacją na tablicy", "Pochodzenie danych": "BGiK", "Aktualność danych": "styczeń 2015"}}, {"type": "Feature", "_id": "AAJ+WaAABAANpMGAAD", "geometry": {"type": "Point", "coordinates": [21.1456, 52.22322]}, "properties": {"Nazwa": "pomnik Poległych w pierwszej masowej egzekucji Polaków 27 grudnia 1939 r.", "Dzielnica": "Wawer", "Autor": "Józef Gazy (rzeźby), Ewa Śliwińska (projekt cmentarza)", "Odsłonięcie": "1950", "Materiał": "piaskowiec (rzeźby)", "Wymiary": "3 m wys. (rzeźby), 1,7 m wys. (cokół)", "Forma": "cmentarz na nim dwie rzeźby na cokołach i wojownika", "Pochodzenie danych": "BGiK", "Aktualność danych": "styczeń 2015"}}, {"type": "Feature", "_id": "AAJ+WaAABAANpMGAAE", "geometry": {"type": "Point", "coordinates": [21.05119, 52.24435]}, "properties": {"Nazwa": "pomnik Poległych Lotników Brytyjskich 1944", "Dzielnica": "Praga-Południe", "Autor": "brak danych", "Odsłonięcie": "4-11-1988", "Materiał": "brak danych", "Wymiary": "brak danych", "Forma": "Głaz z umieszczoną na nim tablicą pamiątkową", "Pochodzenie danych": "BGiK", "Aktualność danych": "styczeń 2015"}}, {"type": "Feature", "_id": "AAJ+WaAABAANpMGAAF", "geometry": {"type": "Point", "coordinates": [21.00221, 52.24514]}, "properties": {"Nazwa": "Reduta „Nałęcza”", "Dzielnica": "Śródmieście", "Autor": "", "Odsłonięcie": "", "Materiał": "kamień, granit", "Wymiary": "kamień ok. 1,7 m wys.", "Forma": "kamień z płytą granitową", "Pochodzenie danych": "BGiK", "Aktualność danych": "lipiec 2016"}}, {"type": "Feature", "_id": "AAJ+WaAABAANpMGAAG", "geometry": {"type": "Point", "coordinates": [21.01183, 52.24548]}, "properties": {"Nazwa": "pomnik Stanisława Staszica", "Dzielnica": "Śródmieście", "Autor": "Stanisław Lipski", "Odsłonięcie": "1976", "Materiał": "granit (głaz narzutowy)", "Wymiary": "ok. 2,5 m wys.", "Forma": "głowa mężczyzny wyłaniająca się z górnej części głazu, ustawionego na płycie", "Pochodzenie danych": "BGiK", "Aktualność danych": "kwiecień 2017"}}, {"type": "Feature", "_id": "AAJ+WaAABAANpMGAAH", "geometry": {"type": "Point", "coordinates": [21.00662, 52.24118]}, "properties": {"Nazwa": "pomnik Stefana Starzyńskiego", "Dzielnica": "Śródmieście", "Autor": "Ludwik Nitschow", "Odsłonięcie": "ustawiony 17-12-1980, odsłonięty 16-01-1981", "Materiał": "brąz (rzeźba), żelbet fragment przedwojennego budynku MSZ-cokół)", "Wymiary": "całość ok. 3 m wys. rzeźba ok. 2 m wys.", "Forma": "postać stojąca na cokole,", "Pochodzenie danych": "BGiK", "Aktualność danych": "styczeń 2015"}}, {"type": "Feature", "_id": "AAJ+WaAABAANpMGAAI", "geometry": {"type": "Point", "coordinates": [20.93476, 52.22703]}, "properties": {"Nazwa": "pomnik Polegli Niepokonani 1939-1945", "Dzielnica": "Wola", "Autor": "Gustaw Zemła", "Odsłonięcie": "20-09-1973", "Materiał": "brąz (rzeźba), granit (barykada)", "Wymiary": "3,5 m wys. (rzeźba)", "Forma": "na kurhanie wyłożony brukiem wyrwę w rozerwanej  barykadzie zasłania półleżąca postać wojownika z tarczą", "Pochodzenie danych": "BGiK", "Aktualność danych": "styczeń 2015"}}, {"type": "Feature", "_id": "AAJ+WaAABAANpMGAAJ", "geometry": {"type": "Point", "coordinates": [20.95166, 52.25811]}, "properties": {"Nazwa": "Dolinka Katyńska", "Dzielnica": "Żoliborz", "Autor": "", "Odsłonięcie": "", "Materiał": "", "Wymiary": "", "Forma": "", "Pochodzenie danych": "BGiK", "Aktualność danych": "czerwiec 2017"}}, {"type": "Feature", "_id": "AAJ+WaAABAANpMGAAK", "geometry": {"type": "Point", "coordinates": [21.01665, 52.24108]}, "properties": {"Nazwa": "pomnik Kardynała Stefana Wyszyńskiego", "Dzielnica": "Śródmieście", "Autor": "Andrzej Renes", "Odsłonięcie": "27-05-1987", "Materiał": "brąz (rzeźba), granit (cokół)", "Wymiary": "ok. 3,5 m wys. (rzeźba), 3 m wys. (cokół)", "Forma": "postać siedząca na cokole", "Pochodzenie danych": "BGiK", "Aktualność danych": "styczeń 2015"}}, {"type": "Feature", "_id": "AAJ+WaAABAANpMHAAA", "geometry": {"type": "Point", "coordinates": [21.01136, 52.24097]}, "properties": {"Nazwa": "Grób Nieznanego Żołnierza", "Dzielnica": "Śródmieście", "Autor": "Stanisław Karzimierz Ostrowski, Zygmunt Atępiński, Henryk Grunwald - dekoracje metalowe (kraty z emblematami)", "Odsłonięcie": "02-11-1925, 08-05-1946", "Materiał": "cegła (arkady), granit (tablice), marmur (płyta), metal (ktary, emblementy)", "Wymiary": "ok. 5 m wys.", "Forma": "fragment kolumnady (3 środkowe arkady)-ocalały z wojennej pożogi skrawek dawnego pałacu Saskiego, pod nim pomnik-grób z płytą nagrobną i wieczny ogień (znicz)", "Pochodzenie danych": "BGiK", "Aktualność danych": "styczeń 2015"}}, {"type": "Feature", "_id": "AAJ+WaAABAANpMHAAB", "geometry": {"type": "Point", "coordinates": [21.04831, 52.16376]}, "properties": {"Nazwa": "pomnik Juliana Ursyna Niemcewicza", "Dzielnica": "Ursynów", "Autor": "", "Odsłonięcie": "", "Materiał": "", "Wymiary": "", "Forma": "na obelisku głaz z tablicą", "Pochodzenie danych": "BGiK", "Aktualność danych": "kwiecień 2017"}}, {"type": "Feature", "_id": "AAJ+WaAABAANpMHAAC", "geometry": {"type": "Point", "coordinates": [21.02682, 52.21349]}, "properties": {"Nazwa": "pomnik marsz. Józefa Piłsudskiego", "Dzielnica": "Śródmieście", "Autor": "Stanisław Ostrowski, powiększenie rzeźby-Jan Konarski, przy kansultacji Adama Romana", "Odsłonięcie": "11-11-1998", "Materiał": "brąz (rzeźba), włoski granit (cokół)", "Wymiary": "3,5 m wys. (rzeźba), 1 m wys. (cokół)", "Forma": "postać stojąca, wsparta na szabli, spiżowa kopia przedwojennej marmurowej rzeźby, powiększona dwukrotnie", "Pochodzenie danych": "BGiK", "Aktualność danych": "styczeń 2015"}},