{"type": "FeatureCollection", "collectionName": "T_SCHRONISKA", "srs": 4326, "geodetic": true, "bbox": [20.90881, 52.16948, 21.21716, 52.28393], "attr_names": ["TYP", "_label_"], "attr_types": ["string", "string"], "edit_properties": {"id_attr": "ROWID", "base_table": "BAZA_NOCLEGOWA", "spatial_attr": "GEOMETRY", "spatial_type": "geometry"}, "features": [{"type": "Feature", "_id": "AAAUSBAAAAAAFKrAAC", "geometry": {"type": "Point", "coordinates": [21.02083, 52.23381]}, "properties": {"TYP": "Schroniska i Hostele", "Opis": "Moon Hostel Warszawa", "Kategoria": "Schroniska i Hostele", "Dzielnica": "Śródmieście", "Adres": "ul. Foksal 16", "Telefon/fax": "22 468 00 66 ", "Pochodzenie danych": "Stołeczne Biuro Turystyki", "Aktualność danych": "2019-12-18", "WWW": "http://moonhostel.pl/warszawa"}}, {"type": "Feature", "_id": "AAAUSBAAAAAAFKrAAV", "geometry": {"type": "Point", "coordinates": [21.00846, 52.25065]}, "properties": {"TYP": "Schroniska i Hostele", "Opis": "Oki Doki City Old Town Hostel", "Kategoria": "Schroniska i Hostele", "Dzielnica": "Śródmieście", "Adres": "ul. Długa 6", "Telefon/fax": "22 635 07 63", "Pochodzenie danych": "Stołeczne Biuro Turystyki", "Aktualność danych": "2019-12-18", "WWW": "http://okidoki.pl/pl/oki-doki-old-town/"}}, {"type": "Feature", "_id": "AAAUSBAAAAAAFKsAAB", "geometry": {"type": "Point", "coordinates": [20.97064, 52.27624]}, "properties": {"TYP": "Schroniska i Hostele", "Opis": "Hostel Pepe", "Kategoria": "Schroniska i Hostele", "Dzielnica": "Bielany", "Adres": "ul. Gdańska 25", "Telefon/fax": "22 865 01 88", "Pochodzenie danych": "Stołeczne Biuro Turystyki", "Aktualność danych": "2019-12-18", "WWW": "http://www.pepehostel.pl/"}}, {"type": "Feature", "_id": "AAAUSBAAAAAAFKsAAC", "geometry": {"type": "Point", "coordinates": [21.05472, 52.23283]}, "properties": {"TYP": "Schroniska i Hostele", "Opis": "Adventura Hostel", "Kategoria": "Schroniska i Hostele", "Dzielnica": "Praga-Południe", "Adres": "ul. Francuska 11A/10", "Telefon/fax": "720 889 133", "Pochodzenie danych": "Stołeczne Biuro Turystyki", "Aktualność danych": "2019-12-18", "WWW": "http://adventura.waw.pl/pl/home"}}, {"type": "Feature", "_id": "AAAUSBAAAAAAFKsAAE", "geometry": {"type": "Point", "coordinates": [21.01947, 52.23297]}, "properties": {"TYP": "Schroniska i Hostele", "Opis": "New World St. Hostel", "Kategoria": "Schroniska i Hostele", "Dzielnica": "Śródmieście", "Adres": "ul. Nowy Świat 27", "Telefon/fax": "22 828 12 82 ", "Pochodzenie danych": "Stołeczne Biuro Turystyki", "Aktualność danych": "2019-12-18", "WWW": "http://www.nws-hostel.pl"}}, {"type": "Feature", "_id": "AAAUSBAAAAAAFKsAAF", "geometry": {"type": "Point", "coordinates": [21.00288, 52.2348]}, "properties": {"TYP": "Schroniska i Hostele", "Opis": "Warsaw Hostel Centrum", "Kategoria": "Schroniska i Hostele", "Dzielnica": "Śródmieście", "Adres": "ul. E. Plater 36A", "Telefon/fax": "517 808 894", "Pochodzenie danych": "Stołeczne Biuro Turystyki", "Aktualność danych": "2019-12-18", "WWW": "http://warsawhostelcentrum.pl"}}, {"type": "Feature", "_id": "AAAUSBAAAAAAFKsAAY", "geometry": {"type": "Point", "coordinates": [21.00985, 52.22837]}, "properties": {"TYP": "Schroniska i Hostele", "Opis": "Mish Mash Hostel Warszawa \"Nowogrodzka\"", "Kategoria": "Schroniska i Hostele", "Dzielnica": "Śródmieście", "Adres": "ul. Nowogrodzka 42", "Telefon/fax": "512 951 446 ", "Pochodzenie danych": "Stołeczne Biuro Turystyki", "Aktualność danych": "2019-12-18", "WWW": "http://mishmashhostel.com/hostel-nowogrodzka/"}}, {"type": "Feature", "_id": "AAAUSBAAAAAAFKtAAF", "geometry": {"type": "Point", "coordinates": [21.01833, 52.23303]}, "properties": {"TYP": "Schroniska i Hostele", "Opis": "Chmielna 5 Hostel", "Kategoria": "Schroniska i Hostele", "Dzielnica": "Śródmieście", "Adres": "ul. Chmielna 5/8", "Telefon/fax": "22 826 69 50", "Pochodzenie danych": "Stołeczne Biuro Turystyki", "Aktualność danych": "2019-12-18", "WWW": "http://chmielna5.pl/"}}, {"type": "Feature", "_id": "AAAUSBAAAAAAFKtAAM", "geometry": {"type": "Point", "coordinates": [21.01621, 52.21614]}, "properties": {"TYP": "Schroniska i Hostele", "Opis": "DD Hostel Riviera", "Kategoria": "Schroniska i Hostele", "Dzielnica": "Śródmieście", "Adres": "ul. L. Waryńskiego 12", "Telefon/fax": "22 205 00 42 ", "Pochodzenie danych": "Stołeczne Biuro Turystyki", "Aktualność danych": "2019-12-18", "WWW": "http://www.warszawahostel.pl"}}, {"type": "Feature", "_id": "AAAUSBAAAAAAFKtAAQ", "geometry": {"type": "Point", "coordinates": [21.01232, 52.22163]}, "properties": {"TYP": "Schroniska i Hostele", "Opis": "Hostel Lwowska 11", "Kategoria": "Schroniska i Hostele", "Dzielnica": "Śródmieście", "Adres": "ul. Lwowska 11/12", "Telefon/fax": "22 699 01 05", "Pochodzenie danych": "Stołeczne Biuro Turystyki", "Aktualność danych": "2019-12-18", "WWW": "http://www.hostellwowska11.pl"}}, {"type": "Feature", "_id": "AAAUSBAAAAAAFKuAAA", "geometry": {"type": "Point", "coordinates": [21.21716, 52.16948]}, "properties": {"TYP": "Schroniska i Hostele", "Opis": "Jazz Pol", "Kategoria": "Schroniska i Hostele", "Dzielnica": "Wawer", "Adres": "ul. Lokalna 51", "Telefon/fax": "22 872 08 03", "Pochodzenie danych": "Stołeczne Biuro Turystyki", "Aktualność danych": "2019-12-18", "WWW": "http://www.jazz-pol.pl/"}}, {"type": "Feature", "_id": "AAAUSBAAAAAAFKuAAH", "geometry": {"type": "Point", "coordinates": [21.02095, 52.21433]}, "properties": {"TYP": "Schroniska i Hostele", "Opis": "Planet Hostel", "Kategoria": "Schroniska i Hostele", "Dzielnica": "Śródmieście", "Adres": "ul. Marszałkowska 1/161", "Telefon/fax": "607 530 888", "Pochodzenie danych": "Stołeczne Biuro Turystyki", "Aktualność danych": "2019-12-18", "WWW": "http://www.planethostel.pl"}}, {"type": "Feature", "_id": "AAAUSBAAAAAAFKuAAV", "geometry": {"type": "Point", "coordinates": [21.07879, 52.25523]}, "properties": {"TYP": "Schroniska i Hostele", "Opis": "Hostel Siennicka", "Kategoria": "Schroniska i Hostele", "Dzielnica": "Praga-Południe", "Adres": "ul. Siennicka 48", "Telefon/fax": "506 486 880", "Pochodzenie danych": "Stołeczne Biuro Turystyki", "Aktualność danych": "2019-12-18", "WWW": "https://www.booking.com/hotel/pl/hostel-siennicka.pl.html"}}, {"type": "Feature", "_id": "AAAUSBAAAAAAFKvAAE", "geometry": {"type": "Point", "coordinates": [21.01368, 52.2493]}, "properties": {"TYP": "Schroniska i Hostele", "Opis": "Kanonia Hostel & Apartments", "Kategoria": "Schroniska i Hostele", "Dzielnica": "Śródmieście", "Adres": "ul. Jezuicka 2", "Telefon/fax": "22 635 06 76 ", "Pochodzenie danych": "Stołeczne Biuro Turystyki", "Aktualność danych": "2019-12-18", "WWW": "http://www.kanonia.pl"}}, {"type": "Feature", "_id": "AAAUSBAAAAAAFKvAAF", "geometry": {"type": "Point", "coordinates": [21.00688, 52.24951]}, "properties": {"TYP": "Schroniska i Hostele", "Opis": "Europejski Dom Spotkań Młodzieży", "Kategoria": "Schroniska i Hostele", "Dzielnica": "Śródmieście", "Adres": "ul. Długa 18/20", "Telefon/fax": "22 635 01 15 ", "Pochodzenie danych": "Stołeczne Biuro Turystyki", "Aktualność danych": "2019-12-18", "WWW": "http://www.edsm.pl"}}, {"type": "Feature", "_id": "AAAUSBAAAAAAFKvAAJ", "geometry": {"type": "Point", "coordinates": [21.02231, 52.17481]}, "properties": {"TYP": "Schroniska i Hostele", "Opis": "Hostel Warszawa", "Kategoria": "Schroniska i Hostele", "Dzielnica": "Mokotów", "Adres": "ul. Wołodyjowskiego 38A", "Telefon/fax": "530 307 660", "Pochodzenie danych": "Stołeczne Biuro Turystyki", "Aktualność danych": "2019-12-18", "WWW": "http://www.hostelwarszawa24.pl/"}}, {"type": "Feature", "_id": "AAAUSBAAAAAAFKvAAN", "geometry": {"type": "Point", "coordinates": [20.97719, 52.27393]}, "properties": {"TYP": "Schroniska i Hostele", "Opis": "The Orange Hostel", "Kategoria": "Schroniska i Hostele", "Dzielnica": "Żoliborz", "Adres": "ul. J. Ch. Paska 13", "Telefon/fax": "", "Pochodzenie danych": "Stołeczne Biuro Turystyki", "Aktualność danych": "2019-12-18", "WWW": "https://www.booking.com/hotel/pl/the-orange-hostel-warsaw5.pl.html"}}, {"type": "Feature", "_id": "AAAUSBAAAAAAhDwAAF", "geometry": {"type": "Point", "coordinates": [21.00699, 52.22535]}, "properties": {"TYP": "Schroniska i Hostele", "Opis": "Central Station Hostel", "Kategoria": "Schroniska i Hostele", "Dzielnica": "Śródmieście", "Adres": "ul. E. Plater 25/45", "Telefon/fax": "515 900 011 ", "Pochodzenie danych": "Stołeczne Biuro Turystyki", "Aktualność danych": "2019-12-18", "WWW": "http://www.cshostel.waw.pl"}}, {"type": "Feature", "_id": "AAAUSBAAAAAAhDwAAQ", "geometry": {"type": "Point", "coordinates": [20.97709, 52.27778]}, "properties": {"TYP": "Schroniska i Hostele", "Opis": "Hostel Marymont", "Kategoria": "Schroniska i Hostele", "Dzielnica": "Żoliborz", "Adres": "ul. S. Twardowskiego 9", "Telefon/fax": "720 888 996", "Pochodzenie danych": "Stołeczne Biuro Turystyki", "Aktualność danych": "2019-12-18", "WWW": "http://www.marymonthostel.pl"}}, {"type": "Feature", "_id": "AAAUSBAAAAAAhDxAAA", "geometry": {"type": "Point", "coordinates": [21.02241, 52.28238]}, "properties": {"TYP": "Schroniska i Hostele", "Opis": "Anton House", "Kategoria": "Schroniska i Hostele", "Dzielnica": "Targówek", "Adres": "ul. Palestyńska 1E", "Telefon/fax": "536 141 841", "Pochodzenie danych": "Stołeczne Biuro Turystyki", "Aktualność danych": "2019-12-18", "WWW": "http://www.antonhostel.pl"}}, {"type": "Feature", "_id": "AAAUSBAAAAAAhDxAAC", "geometry": {"type": "Point", "coordinates": [21.03518, 52.22057]}, "properties": {"TYP": "Schroniska i Hostele", "Opis": "Szkolne Schronisko Młodzieżowe Nr 1 „Agrykola”", "Kategoria": "Schroniska i Hostele", "Dzielnica": "Śródmieście", "Adres": "ul. Myśliwiecka 9", "Telefon/fax": "22 622 91 10", "Pochodzenie danych": "Stołeczne Biuro Turystyki", "Aktualność danych": "2019-12-18", "WWW": "https://www.agrykola-noclegi.pl/pl/"}}, {"type": "Feature", "_id": "AAAUSBAAAAAAhDxAAG", "geometry": {"type": "Point", "coordinates": [21.1034, 52.25528]}, "properties": {"TYP": "Schroniska i Hostele", "Opis": "Hostel Relax", "Kategoria": "Schroniska i Hostele", "Dzielnica": "Praga-Południe", "Adres": "ul. Dudziarska 1A", "Telefon/fax": "22 473 11 91 ", "Pochodzenie danych": "Stołeczne Biuro Turystyki", "Aktualność danych": "2019-12-18", "WWW": "http://www.hostelrelax.pl"}}, {"type": "Feature", "_id": "AAAUSBAAAAAAhDxAAK", "geometry": {"type": "Point", "coordinates": [21.01233, 52.22397]}, "properties": {"TYP": "Schroniska i Hostele", "Opis": "Chillout Hostel", "Kategoria": "Schroniska i Hostele", "Dzielnica": "Śródmieście", "Adres": "ul. Poznańska 7/5 ", "Telefon/fax": "22 409 98 81", "Pochodzenie danych": "Stołeczne Biuro Turystyki", "Aktualność danych": "2019-12-18", "WWW": "http://chillouthostel.pl/"}}, {"type": "Feature", "_id": "AAAUSBAAAAAAhDxAAT", "geometry": {"type": "Point", "coordinates": [21.02354, 52.23948]}, "properties": {"TYP": "Schroniska i Hostele", "Opis": "Aga Hostel", "Kategoria": "Schroniska i Hostele", "Dzielnica": "Śródmieście", "Adres": "ul. Topiel 27/14", "Telefon/fax": "694 372 321 ", "Pochodzenie danych": "Stołeczne Biuro Turystyki", "Aktualność danych": "2019-12-18", "WWW": "http://www.agahostel.pl"}}, {"type": "Feature", "_id": "AAAUSBAAAAAAhDzAAC", "geometry": {"type": "Point", "coordinates": [20.96385, 52.19222]}, "properties": {"TYP": "Schroniska i Hostele", "Opis": "Team Hostel", "Kategoria": "Schroniska i Hostele", "Dzielnica": "Włochy", "Adres": "ul. Lechicka 23B", "Telefon/fax": "22 868 09 68 ", "Pochodzenie danych": "Stołeczne Biuro Turystyki", "Aktualność danych": "2019-12-18", "WWW": "http://www.teamhostel.com"}}, {"type": "Feature", "_id": "AAAUSBAAAAAAhDzAAU", "geometry": {"type": "Point", "coordinates": [20.96, 52.2356]}, "properties": {"TYP": "Schroniska i Hostele", "Opis": "HOSTEL Family Erasmus Center", "Kategoria": "Schroniska i Hostele", "Dzielnica": "Wola", "Adres": "ul. Sokołowska 10 ", "Telefon/fax": "", "Pochodzenie danych": "Stołeczne Biuro Turystyki", "Aktualność danych": "2019-12-18", "WWW": "https://www.booking.com/hotel/pl/hostel-10.pl.html"}}, {"type": "Feature", "_id": "AAAUSBAAAAAAhDzAAY", "geometry": {"type": "Point", "coordinates": [21.03633, 52.25919]}, "properties": {"TYP": "Schroniska i Hostele", "Opis": "Fabryka Hostel", "Kategoria": "Schroniska i Hostele", "Dzielnica": "Praga-Północ", "Adres": "ul. 11 Listopada 22/21", "Telefon/fax": "515 464 209", "Pochodzenie danych": "Stołeczne Biuro Turystyki", "Aktualność danych": "2019-12-18", "WWW": "http://www.hostelfabryka.pl"}}, {"type": "Feature", "_id": "AAAUSBAAAAAAhD0AAV", "geometry": {"type": "Point", "coordinates": [20.98727, 52.24233]}, "properties": {"TYP": "Schroniska i Hostele", "Opis": "El Hostel", "Kategoria": "Schroniska i Hostele", "Dzielnica": "Wola", "Adres": "ul. Smocza 1", "Telefon/fax": "691 409 173 ", "Pochodzenie danych": "Stołeczne Biuro Turystyki", "Aktualność danych": "2019-12-18", "WWW": "http://www.elhostel.pl"}}, {"type": "Feature", "_id": "AAAUSBAAAAAAhD1AAK", "geometry": {"type": "Point", "coordinates": [21.02307, 52.17781]}, "properties": {"TYP": "Schroniska i Hostele", "Opis": "Wilanowska Hostel", "Kategoria": "Schroniska i Hostele", "Dzielnica": "Mokotów", "Adres": "ul. Wołodyjowskiego 75A", "Telefon/fax": "789 038 805", "Pochodzenie danych": "Stołeczne Biuro Turystyki", "Aktualność danych": "2019-12-18", "WWW": "https://pl-pl.facebook.com/wilanowskahostel/"}}, {"type": "Feature", "_id": "AAAUSBAAAAAAhD1AAN", "geometry": {"type": "Point", "coordinates": [21.01374, 52.22825]}, "properties": {"TYP": "Schroniska i Hostele", "Opis": "WDj Hostel", "Kategoria": "Schroniska i Hostele", "Dzielnica": "Śródmieście", "Adres": "ul. Żurawia 32/34", "Telefon/fax": "732 894 055", "Pochodzenie danych": "Stołeczne Biuro Turystyki", "Aktualność danych": "2019-12-18", "WWW": "https://pl-pl.facebook.com/WDjHostel/"}}, {"type": "Feature", "_id": "AAAUSBAAAAAAhD2AAF", "geometry": {"type": "Point", "coordinates": [20.97554, 52.2365]}, "properties": {"TYP": "Schroniska i Hostele", "Opis": "Szkolne Schronisko Młodzieżowe nr 3 \"Syrenka\"", "Kategoria": "Schroniska i Hostele", "Dzielnica": "Wola", "Adres": "ul. Karolkowa 53A", "Telefon/fax": "22 632 88 29 ", "Pochodzenie danych": "Stołeczne Biuro Turystyki", "Aktualność danych": "2019-12-18", "WWW": "http://www.hostelkarolkowa.pl"}}, {"type": "Feature", "_id": "AAAUSBAAAAAAhD2AAH", "geometry": {"type": "Point", "coordinates": [20.90881, 52.21795]}, "properties": {"TYP": "Schroniska i Hostele", "Opis": "Comfort Hostel", "Kategoria": "Schroniska i Hostele", "Dzielnica": "Bemowo", "Adres": "ul. Połczyńska 55A", "Telefon/fax": "22 664 04 60 ", "Pochodzenie danych": "Stołeczne Biuro Turystyki", "Aktualność danych": "2019-12-18", "WWW": "http://www.hostel-comfort.pl"}}, {"type": "Feature", "_id": "AAAUSBAAAAAAhD2AAJ", "geometry": {"type": "Point", "coordinates": [21.0097, 52.22292]}, "properties": {"TYP": "Schroniska i Hostele", "Opis": "LoftHotel Sen Pszczoły", "Kategoria": "Schroniska i Hostele", "Dzielnica": "Śródmieście", "Adres": "ul. Piękna 66A", "Telefon/fax": "530 333 387", "Pochodzenie danych": "Stołeczne Biuro Turystyki", "Aktualność danych": "2019-12-18", "WWW": "http://www.loft.senpszczoly.pl/"}}, {"type": "Feature", "_id": "AAAUSBAAAAAAhD2AAL", "geometry": {"type": "Point", "coordinates": [21.0102, 52.22381]}, "properties": {"TYP": "Schroniska i Hostele", "Opis": "Tapir Hostel", "Kategoria": "Schroniska i Hostele", "Dzielnica": "Śródmieście", "Adres": "ul. Wilcza 58A", "Telefon/fax": "888 059 799 ", "Pochodzenie danych": "Stołeczne Biuro Turystyki", "Aktualność danych": "2019-12-18", "WWW": "http://tapirhostel.pl/"}}, {"type": "Feature", "_id": "AAAUSBAAAAAAhD3AAQ", "geometry": {"type": "Point", "coordinates": [21.01371, 52.24503]}, "properties": {"TYP": "Schroniska i Hostele", "Opis": "Safestay Warsaw", "Kategoria": "Schroniska i Hostele", "Dzielnica": "Śródmieście", "Adres": "ul. Krakowskie Przedmieście 55", "Telefon/fax": "", "Pochodzenie danych": "Stołeczne Biuro Turystyki", "Aktualność danych": "2019-12-18", "WWW": "https://www.booking.com/hotel/pl/dream-hostel-warsaw.pl.html"}}, {"type": "Feature", "_id": "AAAUSBAAAAAAhD3AAU", "geometry": {"type": "Point", "coordinates": [21.0078, 52.22394]}, "properties": {"TYP": "Schroniska i Hostele", "Opis": "Hostel Witt", "Kategoria": "Schroniska i Hostele", "Dzielnica": "Śródmieście", "Adres": "ul. E. Plater 9/11", "Telefon/fax": "603 632 588 ", "Pochodzenie danych": "Stołeczne Biuro Turystyki", "Aktualność danych": "2019-12-18", "WWW": "http://www.hostelwitt.com.pl"}}, {"type": "Feature", "_id": "AAAUSBAAAAAAhD3AAX", "geometry": {"type": "Point", "coordinates": [21.13222, 52.24938]}, "properties": {"TYP": "Schroniska i Hostele", "Opis": "Hostel Karla", "Kategoria": "Schroniska i Hostele", "Dzielnica": "Rembertów", "Adres": "ul. Karla 4", "Telefon/fax": "698 859 595", "Pochodzenie danych": "Stołeczne Biuro Turystyki", "Aktualność danych": "2019-12-18", "WWW": "https://karla-4-hostel-tanie-noclegi-kwatera-dla-studenta-kwatera.business.site/?utm_source=gmb&utm_medium=referral"}}, {"type": "Feature", "_id": "AAAUSBAAAAAAhD5AAB", "geometry": {"type": "Point", "coordinates": [21.03288, 52.23529]}, "properties": {"TYP": "Schroniska i Hostele", "Opis": "Inbed Hostel", "Kategoria": "Schroniska i Hostele", "Dzielnica": "Śródmieście", "Adres": "ul. Solec 38/202", "Telefon/fax": "722 133 666", "Pochodzenie danych": "Stołeczne Biuro Turystyki", "Aktualność danych": "2019-12-18", "WWW": "http://www.inbedhostel.pl/"}}, {"type": "Feature", "_id": "AAAUSBAAAAAAhD5AAH", "geometry": {"type": "Point", "coordinates": [21.01701, 52.17453]}, "properties": {"TYP": "Schroniska i Hostele", "Opis": "Irysowy Hostel Premiuim", "Kategoria": "Schroniska i Hostele", "Dzielnica": "Mokotów", "Adres": "ul. Irysowa 3", "Telefon/fax": "533 358 770", "Pochodzenie danych": "Stołeczne Biuro Turystyki", "Aktualność danych": "2019-12-18", "WWW": "http://irysowy.pl/"}}, {"type": "Feature", "_id": "AAAUSBAAAAAAhD6AAV", "geometry": {"type": "Point", "coordinates": [21.02063, 52.23927]}, "properties": {"TYP": "Schroniska i Hostele", "Opis": "Fest Hostel", "Kategoria": "Schroniska i Hostele", "Dzielnica": "Śródmieście", "Adres": "ul. Oboźna 7/64", "Telefon/fax": "506 285 286 ", "Pochodzenie danych": "Stołeczne Biuro Turystyki", "Aktualność danych": "2019-12-18", "WWW": "http://www.festhostel.pl"}}, {"type": "Feature", "_id": "AAAUSBAAAAAAhD7AAJ", "geometry": {"type": "Point", "coordinates": [20.96386, 52.21884]}, "properties": {"TYP": "Schroniska i Hostele", "Opis": "Hostel Zachodni", "Kategoria": "Schroniska i Hostele", "Dzielnica": "Ochota", "Adres": "Al. Jerozolimskie 144", "Telefon/fax": "22 817 63 92 ", "Pochodzenie danych": "Stołeczne Biuro Turystyki", "Aktualność danych": "2019-12-18", "WWW": "http://hostelzachodni.pl/"}}, {"type": "Feature", "_id": "AAAUSBAAAAAAhD7AAO", "geometry": {"type": "Point", "coordinates": [21.04196, 52.25396]}, "properties": {"TYP": "Schroniska i Hostele", "Opis": "Aparthostel Warszawa", "Kategoria": "Schroniska i Hostele", "Dzielnica": "Praga-Północ", "Adres": "ul. Ząbkowska 23/25", "Telefon/fax": "511 063 553", "Pochodzenie danych": "Stołeczne Biuro Turystyki", "Aktualność danych": "2019-12-18", "WWW": "https://www.aparthostelwarszawa.pl/"}}, {"type": "Feature", "_id": "AAAUSBAAAAAAhD8AAE", "geometry": {"type": "Point", "coordinates": [20.97723, 52.27726]}, "properties": {"TYP": "Schroniska i Hostele", "Opis": "Tolek Hostel", "Kategoria": "Schroniska i Hostele", "Dzielnica": "Żoliborz", "Adres": "ul. H. Dembińskiego14A", "Telefon/fax": "600 448 352", "Pochodzenie danych": "Stołeczne Biuro Turystyki", "Aktualność danych": "2019-12-18", "WWW": "http://www.tolekhostel.pl/"}}, {"type": "Feature", "_id": "AAAUSBAAAAAAhD8AAG", "geometry": {"type": "Point", "coordinates": [21.00943, 52.23652]}, "properties": {"TYP": "Schroniska i Hostele", "Opis": "Oki Doki City Hostel", "Kategoria": "Schroniska i Hostele", "Dzielnica": "Śródmieście", "Adres": "pl. J. H. Dąbrowskiego 3", "Telefon/fax": "22 828 01 22 ", "Pochodzenie danych": "Stołeczne Biuro Turystyki", "Aktualność danych": "2019-12-18", "WWW": "http://okidoki.pl/oki-doki-city/"}}, {"type": "Feature", "_id": "AAAUSBAAAAAAhD8AAN", "geometry": {"type": "Point", "coordinates": [21.01788, 52.24255]}, "properties": {"TYP": "Schroniska i Hostele", "Opis": "Puffa Hostel Lux", "Kategoria": "Schroniska i Hostele", "Dzielnica": "Śródmieście", "Adres": "ul. Karowa 31", "Telefon/fax": "22 255 70 88", "Pochodzenie danych": "Stołeczne Biuro Turystyki", "Aktualność danych": "2019-12-18", "WWW": "http://www.puffahostel.com/"}}, {"type": "Feature", "_id": "AAAUSBAAAAAAhD8AAP", "geometry": {"type": "Point", "coordinates": [21.05694, 52.2603]}, "properties": {"TYP": "Schroniska i Hostele", "Opis": "Hostel Praga", "Kategoria": "Schroniska i Hostele", "Dzielnica": "Praga-Północ", "Adres": "ul. Otwocka 7", "Telefon/fax": "22 818 00 65 / 22 678 76 64", "Pochodzenie danych": "Stołeczne Biuro Turystyki", "Aktualność danych": "2019-12-18", "WWW": "http://hostelpraga.pl/"}}, {"type": "Feature", "_id": "AAAUSBAAAAAAhD8AAT", "geometry": {"type": "Point", "coordinates": [20.99358, 52.23146]}, "properties": {"TYP": "Schroniska i Hostele", "Opis": "Hipstel", "Kategoria": "Schroniska i Hostele", "Dzielnica": "Wola", "Adres": "ul. Pańska 67", "Telefon/fax": "22 253 41 47", "Pochodzenie danych": "Stołeczne Biuro Turystyki", "Aktualność danych": "2019-12-18", "WWW": "http://hipstel.pl/"}}, {"type": "Feature", "_id": "AAAUSBAAAAAAhD9AAL", "geometry": {"type": "Point", "coordinates": [21.05807, 52.25858]}, "properties": {"TYP": "Schroniska i Hostele", "Opis": "Cloud Hostel", "Kategoria": "Schroniska i Hostele", "Dzielnica": "Praga-Północ", "Adres": "ul. Otwocka 1", "Telefon/fax": "22 618 30 17", "Pochodzenie danych": "Stołeczne Biuro Turystyki", "Aktualność danych": "2019-12-18", "WWW": "https://www.cloudhostel.pl/"}}, {"type": "Feature", "_id": "AAAUSBAAAAAAhD9AAV", "geometry": {"type": "Point", "coordinates": [21.01483, 52.22648]}, "properties": {"TYP": "Schroniska i Hostele", "Opis": "Hoża Hostel", "Kategoria": "Schroniska i Hostele", "Dzielnica": "Śródmieście", "Adres": "ul. Hoża 42/7", "Telefon/fax": "532 083 177 ", "Pochodzenie danych": "Stołeczne Biuro Turystyki", "Aktualność danych": "2019-12-18", "WWW": "http://hozahostel.pl"}}, {"type": "Feature", "_id": "AAAUSBAAAAAAhD+AAD", "geometry": {"type": "Point", "coordinates": [21.05212, 52.25983]}, "properties": {"TYP": "Schroniska i Hostele", "Opis": "Hostel Maxim", "Kategoria": "Schroniska i Hostele", "Dzielnica": "Praga-Północ", "Adres": "ul. Śnieżna 4", "Telefon/fax": "22 619 00 79", "Pochodzenie danych": "Stołeczne Biuro Turystyki", "Aktualność danych": "2019-12-18", "WWW": "https://www.hostelmaxim.pl/"}}, {"type": "Feature", "_id": "AAAUSBAAAAAAhD+AAK", "geometry": {"type": "Point", "coordinates": [21.01395, 52.23744]}, "properties": {"TYP": "Schroniska i Hostele", "Opis": "Kapsuła Hostel", "Kategoria": "Schroniska i Hostele", "Dzielnica": "Śródmieście", "Adres": "ul. Dowcip 4", "Telefon/fax": "605 082 335", "Pochodzenie danych": "Stołeczne Biuro Turystyki", "Aktualność danych": "2019-12-18", "WWW": "https://kapsulahostel.pl/"}}, {"type": "Feature", "_id": "AAAUSBAAAAAAhD+AAM", "geometry": {"type": "Point", "coordinates": [20.93538, 52.19298]}, "properties": {"TYP": "Schroniska i Hostele", "Opis": "Hostel Ave", "Kategoria": "Schroniska i Hostele", "Dzielnica": "Włochy", "Adres": "ul. Krakowiaków 80/98", "Telefon/fax": "571 383 006", "Pochodzenie danych": "Stołeczne Biuro Turystyki", "Aktualność danych": "2019-12-18", "WWW": "https://www.avehostel.pl"}}, {"type": "Feature", "_id": "AAAUSBAAAAAAhD+AAU", "geometry": {"type": "Point", "coordinates": [21.02552, 52.2373]}, "properties": {"TYP": "Schroniska i Hostele", "Opis": "Tatamka Hostel ", "Kategoria": "Schroniska i Hostele", "Dzielnica": "Śródmieście", "Adres": "ul. Tamka 30", "Telefon/fax": "22 826 30 95 ", "Pochodzenie danych": "Stołeczne Biuro Turystyki", "Aktualność danych": "2019-12-18", "WWW": "http://www.tatamkahostel.pl"}}, {"type": "Feature", "_id": "AAAUSBAAAAAAhD+AAX", "geometry": {"type": "Point", "coordinates": [21.0425, 52.1874]}, "properties": {"TYP": "Schroniska i Hostele", "Opis": "Hostel Tor Stegny", "Kategoria": "Schroniska i Hostele", "Dzielnica": "Mokotów", "Adres": "ul. Inspektowa 1", "Telefon/fax": "519 591 981 ", "Pochodzenie danych": "Stołeczne Biuro Turystyki", "Aktualność danych": "2019-12-18", "WWW": "http://www.hosteltorstegny.pl"}}, {"type": "Feature", "_id": "AAAUSBAAAAAAhD+AAZ", "geometry": {"type": "Point", "coordinates": [20.98948, 52.22356]}, "properties": {"TYP": "Schroniska i Hostele", "Opis": "AB Hostel", "Kategoria": "Schroniska i Hostele", "Dzielnica": "Ochota", "Adres": "ul. Tarczyńska 1/59", "Telefon/fax": "22 404 35 17", "Pochodzenie danych": "Stołeczne Biuro Turystyki", "Aktualność danych": "2019-12-18", "WWW": "http://abhostel.pl/pol"}}, {"type": "Feature", "_id": "AAAUSBAAAAAAhD/AAK", "geometry": {"type": "Point", "coordinates": [21.02055, 52.23718]}, "properties": {"TYP": "Schroniska i Hostele", "Opis": "The Warsaw Hostel", "Kategoria": "Schroniska i Hostele", "Dzielnica": "Śródmieście", "Adres": "ul. M. Kopernika 30", "Telefon/fax": "22 115 44 42", "Pochodzenie danych": "Stołeczne Biuro Turystyki", "Aktualność danych": "2019-12-18", "WWW": "https://pl-pl.facebook.com/TheWarsawHostel"}}, {"type": "Feature", "_id": "AAAUSBAAAAAAhKAAAB", "geometry": {"type": "Point", "coordinates": [21.02109, 52.23415]}, "properties": {"TYP": "Schroniska i Hostele", "Opis": "eMKa Hostel", "Kategoria": "Schroniska i Hostele", "Dzielnica": "Śródmieście", "Adres": "ul. M. Kopernika 3", "Telefon/fax": "22 657 20 04 ", "Pochodzenie danych": "Stołeczne Biuro Turystyki", "Aktualność danych": "2019-12-18", "WWW": "http://www.emkahostel.pl/"}}, {"type": "Feature", "_id": "AAAUSBAAAAAAhKAAAD", "geometry": {"type": "Point", "coordinates": [21.02079, 52.23832]}, "properties": {"TYP": "Schroniska i Hostele", "Opis": "Helvetia Hostel ", "Kategoria": "Schroniska i Hostele", "Dzielnica": "Śródmieście", "Adres": "ul. Sewerynów 7", "Telefon/fax": "22 826 71 08 ", "Pochodzenie danych": "Stołeczne Biuro Turystyki", "Aktualność danych": "2019-12-18", "WWW": "http://www.hostel-helvetia.pl"}}, {"type": "Feature", "_id": "AAAUSBAAAAAAhKAAAK", "geometry": {"type": "Point", "coordinates": [20.99484, 52.22599]}, "properties": {"TYP": "Schroniska i Hostele", "Opis": "Coco Hostel", "Kategoria": "Schroniska i Hostele", "Dzielnica": "Ochota", "Adres": "Al. Jerozolimskie 107", "Telefon/fax": "531 771 171 ", "Pochodzenie danych": "Stołeczne Biuro Turystyki", "Aktualność danych": "2019-12-18", "WWW": "http://www.hostelcoco.pl/"}}, {"type": "Feature", "_id": "AAAUSBAAAAAAhKAAAN", "geometry": {"type": "Point", "coordinates": [21.03428, 52.25587]}, "properties": {"TYP": "Schroniska i Hostele", "Opis": "VAVA Hostel", "Kategoria": "Schroniska i Hostele", "Dzielnica": "Praga-Północ", "Adres": "ul. Targowa 76", "Telefon/fax": "513 435 444", "Pochodzenie danych": "Stołeczne Biuro Turystyki", "Aktualność danych": "2019-12-18", "WWW": "http://www.vavahostel.pl/"}}, {"type": "Feature", "_id": "AAAUSBAAAAAAhKAAAP", "geometry": {"type": "Point", "coordinates": [21.01801, 52.22378]}, "properties": {"TYP": "Schroniska i Hostele", "Opis": "ErasmusDorm", "Kategoria": "Schroniska i Hostele", "Dzielnica": "Śródmieście", "Adres": "ul. Piekna 24/26", "Telefon/fax": "888 096 111", "Pochodzenie danych": "Stołeczne Biuro Turystyki", "Aktualność danych": "2019-12-18", "WWW": "http://erasmusdorm.com/"}}, {"type": "Feature", "_id": "AAAUSBAAAAAAhKAAAV", "geometry": {"type": "Point", "coordinates": [21.01067, 52.23615]}, "properties": {"TYP": "Schroniska i Hostele", "Opis": "Camera Hostel ", "Kategoria": "Schroniska i Hostele", "Dzielnica": "Śródmieście", "Adres": "ul. Jasna 22", "Telefon/fax": "22 828 86 00 ", "Pochodzenie danych": "Stołeczne Biuro Turystyki", "Aktualność danych": "2019-12-18", "WWW": "http://www.camerahostel.com"}}, {"type": "Feature", "_id": "AAAUSBAAAAAAhKBAAF", "geometry": {"type": "Point", "coordinates": [21.01716, 52.22508]}, "properties": {"TYP": "Schroniska i Hostele", "Opis": "Emma Hostel", "Kategoria": "Schroniska i Hostele", "Dzielnica": "Śródmieście", "Adres": "ul. Wilcza 25/4", "Telefon/fax": "22 629 76 95 ", "Pochodzenie danych": "Stołeczne Biuro Turystyki", "Aktualność danych": "2019-12-18", "WWW": "https://www.newemmahostel.com"}}, {"type": "Feature", "_id": "AAAUSBAAAAAAhKBAAH", "geometry": {"type": "Point", "coordinates": [21.01824, 52.23285]}, "properties": {"TYP": "Schroniska i Hostele", "Opis": "Patchwork Design Hostel", "Kategoria": "Schroniska i Hostele", "Dzielnica": "Śródmieście", "Adres": "ul. Chmielna 5/7", "Telefon/fax": "22 258 39 59 ", "Pochodzenie danych": "Stołeczne Biuro Turystyki", "Aktualność danych": "2019-12-18", "WWW": "http://patchworkhostel.pl"}}, {"type": "Feature", "_id": "AAAUSBAAAAAAhKBAAK", "geometry": {"type": "Point", "coordinates": [21.02108, 52.2201]}, "properties": {"TYP": "Schroniska i Hostele", "Opis": "Globetrotter Hostel", "Kategoria": "Schroniska i Hostele", "Dzielnica": "Śródmieście", "Adres": "al. Wyzwolenia 10/127", "Telefon/fax": "22 127 85 62", "Pochodzenie danych": "Stołeczne Biuro Turystyki", "Aktualność danych": "2019-12-18", "WWW": "http://www.globetrotterhostel.com.pl/"}}, {"type": "Feature", "_id": "AAAUSBAAAAAAhKCAAA", "geometry": {"type": "Point", "coordinates": [21.07924, 52.17581]}, "properties": {"TYP": "Schroniska i Hostele", "Opis": "DanHostel", "Kategoria": "Schroniska i Hostele", "Dzielnica": "Wilanów", "Adres": "ul. Chorągwi Pancernej 80", "Telefon/fax": "786 281 477", "Pochodzenie danych": "Stołeczne Biuro Turystyki", "Aktualność danych": "2019-12-18", "WWW": "https://www.booking.com/hotel/pl/danhostel-warszawa.pl.html"}}, {"type": "Feature", "_id": "AAAUSBAAAAAAhKCAAB", "geometry": {"type": "Point", "coordinates": [21.00981, 52.22836]}, "properties": {"TYP": "Schroniska i Hostele", "Opis": "Warsaw Center Hostel LUX", "Kategoria": "Schroniska i Hostele", "Dzielnica": "Śródmieście", "Adres": "ul. Nowogrodzka 42", "Telefon/fax": "502 200 761", "Pochodzenie danych": "Stołeczne Biuro Turystyki", "Aktualność danych": "2019-12-18", "WWW": "https://www.booking.com/hotel/pl/warsaw-center-hostel-lux.pl.html"}}, {"type": "Feature", "_id": "AAAUSBAAAAAAhKCAAC", "geometry": {"type": "Point", "coordinates": [21.04662, 52.23657]}, "properties": {"TYP": "Schroniska i Hostele", "Opis": "Lull Hostel", "Kategoria": "Schroniska i Hostele", "Dzielnica": "Praga-Południe", "Adres": "ul. Jakubowska 4/1", "Telefon/fax": "608 031 743", "Pochodzenie danych": "Stołeczne Biuro Turystyki", "Aktualność danych": "2019-12-18", "WWW": "http://lullhostel.pl/"}}, {"type": "Feature", "_id": "AAAUSBAAAAAAhKCAAD", "geometry": {"type": "Point", "coordinates": [20.97882, 52.255]}, "properties": {"TYP": "Schroniska i Hostele", "Opis": "Hostel Migrant", "Kategoria": "Schroniska i Hostele", "Dzielnica": "Wola", "Adres": "ul. Burakowska 11", "Telefon/fax": "578 550 922", "Pochodzenie danych": "Stołeczne Biuro Turystyki", "Aktualność danych": "2019-12-18", "WWW": "https://www.olx.pl/oferta/hostel-centrum-warszawa-CID3-IDvKkdG.html"}}, {"type": "Feature", "_id": "AAAUSBAAAAAAhKCAAE", "geometry": {"type": "Point", "coordinates": [21.00881, 52.25354]}, "properties": {"TYP": "Schroniska i Hostele", "Opis": "Dom Przy Rynku", "Kategoria": "Schroniska i Hostele", "Dzielnica": "Śródmieście", "Adres": "Rynek Nowego Miasta 4", "Telefon/fax": "22 831 50 33", "Pochodzenie danych": "Stołeczne Biuro Turystyki", "Aktualność danych": "2019-12-18", "WWW": "https://www.facebook.com/Dom-Przy-Rynku-Hostel-382187708459774/"}}, {"type": "Feature", "_id": "AAAUSBAAAAAAhKCAAF", "geometry": {"type": "Point", "coordinates": [20.98217, 52.24969]}, "properties": {"TYP": "Schroniska i Hostele", "Opis": "Press Hostel", "Kategoria": "Schroniska i Hostele", "Dzielnica": "Wola", "Adres": "ul. Smocza 27", "Telefon/fax": "507 807 232", "Pochodzenie danych": "Stołeczne Biuro Turystyki", "Aktualność danych": "2019-12-18", "WWW": "http://presshostel.com/"}}, {"type": "Feature", "_id": "AAAUSBAAAAAAhKCAAG", "geometry": {"type": "Point", "coordinates": [21.01369, 52.22824]}, "properties": {"TYP": "Schroniska i Hostele", "Opis": "Crane Hostel", "Kategoria": "Schroniska i Hostele", "Dzielnica": "Śródmieście", "Adres": "ul. Żurawia 32/34", "Telefon/fax": "796 516 805", "Pochodzenie danych": "Stołeczne Biuro Turystyki", "Aktualność danych": "2019-12-18", "WWW": "https://www.booking.com/hotel/pl/crane-hostel.pl.html"}}, {"type": "Feature", "_id": "AAAUSBAAAAAAhKCAAH", "geometry": {"type": "Point", "coordinates": [20.91, 52.28393]}, "properties": {"TYP": "Schroniska i Hostele", "Opis": "Arcus Premium Hostel", "Kategoria": "Schroniska i Hostele", "Dzielnica": "Bielany", "Adres": "ul. Arkuszowa 12", "Telefon/fax": "780 032 656", "Pochodzenie danych": "Stołeczne Biuro Turystyki", "Aktualność danych": "2019-12-18", "WWW": "http://arcushostel.pl/"}}, {"type": "Feature", "_id": "AAAUSBAAAAAAhKCAAI", "geometry": {"type": "Point", "coordinates": [21.00112, 52.19184]}, "properties": {"TYP": "Schroniska i Hostele", "Opis": "Homfort Hostel", "Kategoria": "Schroniska i Hostele", "Dzielnica": "Mokotów", "Adres": "ul. Syryńska 10", "Telefon/fax": "", "Pochodzenie danych": "Stołeczne Biuro Turystyki", "Aktualność danych": "2019-12-18", "WWW": "https://www.facebook.com/homfort.hostel/"}}, {"type": "Feature", "_id": "AAAUSBAAAAAAhKCAAJ", "geometry": {"type": "Point", "coordinates": [21.06729, 52.24863]}, "properties": {"TYP": "Schroniska i Hostele", "Opis": "Sporthostel", "Kategoria": "Schroniska i Hostele", "Dzielnica": "Praga-Południe", "Adres": "ul. Chodakowska 12", "Telefon/fax": "515 515 344", "Pochodzenie danych": "Stołeczne Biuro Turystyki", "Aktualność danych": "2019-12-18", "WWW": "http://sporthostel.pl/"}}, {"type": "Feature", "_id": "AAAUSBAAAAAAhKCAAK", "geometry": {"type": "Point", "coordinates": [20.94236, 52.18732]}, "properties": {"TYP": "Schroniska i Hostele", "Opis": "Henrix Hostel", "Kategoria": "Schroniska i Hostele", "Dzielnica": "Włochy", "Adres": "ul. Leonidasa 59", "Telefon/fax": "507 187 152", "Pochodzenie danych": "Stołeczne Biuro Turystyki", "Aktualność danych": "2019-12-18", "WWW": "http://www.hostelhenrix.pl/"}}, {"type": "Feature", "_id": "AAAUSBAAAAAAhKCAAL", "geometry": {"type": "Point", "coordinates": [20.94112, 52.18162]}, "properties": {"TYP": "Schroniska i Hostele", "Opis": "Loft Hostel", "Kategoria": "Schroniska i Hostele", "Dzielnica": "Włochy", "Adres": "ul. Janiszowska 28A", "Telefon/fax": "690 061 990", "Pochodzenie danych": "Stołeczne Biuro Turystyki", "Aktualność danych": "2019-12-18", "WWW": "https://pl-pl.facebook.com/LoftHostelWAW/"}}, {"type": "Feature", "_id": "AAAUSBAAAAAAhKCAAO", "geometry": {"type": "Point", "coordinates": [21.16504, 52.25781]}, "properties": {"TYP": "Schroniska i Hostele", "Opis": "Hostel Pracowniczy ZETEX", "Kategoria": "Schroniska i Hostele", "Dzielnica": "Rembertów", "Adres": "ul. Przebieg 7", "Telefon/fax": "666 832 633", "Pochodzenie danych": "Stołeczne Biuro Turystyki", "Aktualność danych": "2019-12-18", "WWW": "http://hotelpracowniczy.org/"}}, {"type": "Feature", "_id": "AAAUSBAAAAAAhKDAAC", "geometry": {"type": "Point", "coordinates": [20.96506, 52.24522]}, "properties": {"TYP": "Schroniska i Hostele", "Opis": "Crystal Apartment&Hostel Warsaw", "Kategoria": "Schroniska i Hostele", "Dzielnica": "Wola", "Adres": "ul. Obozowa 20", "Telefon/fax": "501 774 757", "Pochodzenie danych": "Stołeczne Biuro Turystyki", "Aktualność danych": "2019-12-18", "WWW": "https://www.facebook.com/Crystal-ApartmentHostel-Warsaw-394076414668529/"}}, {"type": "Feature", "_id": "AAAUSBAAAAAAhKDAAH", "geometry": {"type": "Point", "coordinates": [21.06311, 52.23704]}, "properties": {"TYP": "Schroniska i Hostele", "Opis": "LL20 Hostel", "Kategoria": "Schroniska i Hostele", "Dzielnica": "Praga-Południe", "Adres": "ul. Londyńska 20", "Telefon/fax": "22 617 23 09", "Pochodzenie danych": "Stołeczne Biuro Turystyki", "Aktualność danych": "2019-12-18", "WWW": "http://www.ll20.eu/"}}]}