{"features": [{"type": "Feature", "_id": "AAAUB5AAAAAACwjAAA", "geometry": {"type": "Point", "coordinates": [21.01475, 52.19223]}, "properties": {"Nazwa": "FUP Warszawa 108", "Adres": "Aleja Niepodległości 77/85", "Pochodzenie danych": "Poczta Polska S.A.", "Aktualność danych": "07-12-2019"}}, {"type": "Feature", "_id": "AAAUB5AAAAAACwjAAC", "geometry": {"type": "Point", "coordinates": [21.00094, 52.18199]}, "properties": {"Nazwa": "UP Warszawa 113", "Adres": "ul. Domaniewska 41", "Telefon/fax": "22-656-51-04", "Pochodzenie danych": "Poczta Polska S.A.", "Aktualność danych": "07-12-2019"}}, {"type": "Feature", "_id": "AAAUB5AAAAAACwjAAE", "geometry": {"type": "Point", "coordinates": [20.9316, 52.26397]}, "properties": {"Nazwa": "FUP Warszawa 116", "Adres": "ul. Powstańców Śląskich 126", "Pochodzenie danych": "Poczta Polska S.A.", "Aktualność danych": "07-12-2019"}}, {"type": "Feature", "_id": "AAAUB5AAAAAACwjAAF", "geometry": {"type": "Point", "coordinates": [20.92992, 52.30346]}, "properties": {"Nazwa": "FUP Warszawa 118", "Adres": "ul. Heroldów 19 B", "Pochodzenie danych": "Poczta Polska S.A.", "Aktualność danych": "07-12-2019"}}, {"type": "Feature", "_id": "AAAUB5AAAAAACwjAAM", "geometry": {"type": "Point", "coordinates": [20.97929, 52.1881]}, "properties": {"Nazwa": "FUP Warszawa 119", "Adres": "ul. Żwirki i Wigury 9/13", "Pochodzenie danych": "Poczta Polska S.A.", "Aktualność danych": "07-12-2019"}}, {"type": "Feature", "_id": "AAAUB5AAAAAACwjAAN", "geometry": {"type": "Point", "coordinates": [20.95496, 52.19061]}, "properties": {"Nazwa": "FUP Warszawa 119", "Adres": "ul. Kazimierza Wielkiego 2", "Pochodzenie danych": "Poczta Polska S.A.", "Aktualność danych": "07-12-2019"}}, {"type": "Feature", "_id": "AAAUB5AAAAAACwjAAT", "geometry": {"type": "Point", "coordinates": [21.07888, 52.23433]}, "properties": {"Nazwa": "UP Warszawa 127", "Adres": "ul. Ostrzycka 2/4", "Telefon/fax": "22-813-55-12", "Pochodzenie danych": "Poczta Polska S.A.", "Aktualność danych": "07-12-2019"}}, {"type": "Feature", "_id": "AAAUB5AAAAAACwkAAM", "geometry": {"type": "Point", "coordinates": [21.01716, 52.22837]}, "properties": {"Nazwa": "FUP Warszawa 133", "Adres": "ul. Wspólna 30", "Pochodzenie danych": "Poczta Polska S.A.", "Aktualność danych": "07-12-2019"}}, {"type": "Feature", "_id": "AAAUB5AAAAAACwkAAN", "geometry": {"type": "Point", "coordinates": [21.02247, 52.21694]}, "properties": {"Nazwa": "FUP Warszawa 133", "Adres": "ul. Litewska 2/4", "Pochodzenie danych": "Poczta Polska S.A.", "Aktualność danych": "07-12-2019"}}, {"type": "Feature", "_id": "AAAUB5AAAAAACwkAAP", "geometry": {"type": "Point", "coordinates": [21.01945, 52.2286]}, "properties": {"Nazwa": "FUP Warszawa 133", "Adres": "ul. Wspólna 4", "Pochodzenie danych": "Poczta Polska S.A.", "Aktualność danych": "07-12-2019"}}, {"type": "Feature", "_id": "AAAUB5AAAAAACwlAAH", "geometry": {"type": "Point", "coordinates": [21.05626, 52.14033]}, "properties": {"Nazwa": "UP Warszawa 78", "Adres": "ul. Belgradzka 42", "Telefon/fax": "22-641-27-52", "Pochodzenie danych": "Poczta Polska S.A.", "Aktualność danych": "07-12-2019"}}, {"type": "Feature", "_id": "AAAUB5AAAAAACwlAAO", "geometry": {"type": "Point", "coordinates": [20.96194, 52.21117]}, "properties": {"Nazwa": "FUP Warszawa 79", "Adres": "ul. Opaczewska 43", "Pochodzenie danych": "Poczta Polska S.A.", "Aktualność danych": "07-12-2019"}}, {"type": "Feature", "_id": "AAAUB5AAAAAACwlAAT", "geometry": {"type": "Point", "coordinates": [21.00417, 52.22625]}, "properties": {"Nazwa": "FUP Warszawa 81", "Adres": "ul. Tytusa Chałubińskiego 8", "Pochodzenie danych": "Poczta Polska S.A.", "Aktualność danych": "07-12-2019"}}, {"type": "Feature", "_id": "AAAUB5AAAAAACwmAAJ", "geometry": {"type": "Point", "coordinates": [21.06241, 52.21267]}, "properties": {"Nazwa": "FUP Warszawa 88", "Adres": "ul. Bartycka 24/26", "Pochodzenie danych": "Poczta Polska S.A.", "Aktualność danych": "07-12-2019"}}, {"type": "Feature", "_id": "AAAUB5AAAAAACwmAAN", "geometry": {"type": "Point", "coordinates": [21.21348, 52.16191]}, "properties": {"Nazwa": "FUP Warszawa 90", "Adres": "ul. Bystrzycka 55", "Pochodzenie danych": "Poczta Polska S.A.", "Aktualność danych": "07-12-2019"}}, {"type": "Feature", "_id": "AAAUB5AAAAAACwnAAJ", "geometry": {"type": "Point", "coordinates": [21.18655, 52.18371]}, "properties": {"Nazwa": "FUP Warszawa 94", "Adres": "ul. Panny Wodnej 46/48", "Pochodzenie danych": "Poczta Polska S.A.", "Aktualność danych": "07-12-2019"}}, {"type": "Feature", "_id": "AAAUB5AAAAAACwnAAK", "geometry": {"type": "Point", "coordinates": [21.15348, 52.17369]}, "properties": {"Nazwa": "FUP Warszawa 94", "Adres": "ul. Trakt Lubelski 1/3", "Pochodzenie danych": "Poczta Polska S.A.", "Aktualność danych": "07-12-2019"}}, {"type": "Feature", "_id": "AAAUB5AAAAAJCrgAAE", "geometry": {"type": "Point", "coordinates": [21.22529, 52.22361]}, "properties": {"Nazwa": "FUP Warszawa 147", "Adres": "ul. Trakt Brzeski 35", "Pochodzenie danych": "Poczta Polska S.A.", "Aktualność danych": "07-12-2019"}}, {"type": "Feature", "_id": "AAAUB5AAAAAJCrhAAK", "geometry": {"type": "Point", "coordinates": [21.01763, 52.23961]}, "properties": {"Nazwa": "FUP Warszawa 40", "Adres": "ul. Krakowskie Przedmieście 26/28", "Pochodzenie danych": "Poczta Polska S.A.", "Aktualność danych": "07-12-2019"}}, {"type": "Feature", "_id": "AAAUB5AAAAAJCrhAAQ", "geometry": {"type": "Point", "coordinates": [20.94069, 52.22528]}, "properties": {"Nazwa": "FUP Warszawa 42", "Adres": "ul. Goleszowska 6", "Pochodzenie danych": "Poczta Polska S.A.", "Aktualność danych": "07-12-2019"}}, {"type": "Feature", "_id": "AAAUB5AAAAAJCrhAAS", "geometry": {"type": "Point", "coordinates": [21.11585, 52.23815]}, "properties": {"Nazwa": "FUP Warszawa 44", "Adres": "ul. Grochowska 23/31", "Pochodzenie danych": "Poczta Polska S.A.", "Aktualność danych": "07-12-2019"}}, {"type": "Feature", "_id": "AAAUB5AAAAAJCriAAD", "geometry": {"type": "Point", "coordinates": [20.94218, 52.26837]}, "properties": {"Nazwa": "FUP Warszawa 45", "Adres": "ul. Pułkownika Mieczysława Niedzielskiego `Żywiciela` 2C lok. 104", "Pochodzenie danych": "Poczta Polska S.A.", "Aktualność danych": "07-12-2019"}}, {"type": "Feature", "_id": "AAAUB5AAAAAJCriAAE", "geometry": {"type": "Point", "coordinates": [20.94814, 52.27631]}, "properties": {"Nazwa": "FUP Warszawa 45", "Adres": "ul. Stefana Żeromskiego 29", "Pochodzenie danych": "Poczta Polska S.A.", "Aktualność danych": "07-12-2019"}}, {"type": "Feature", "_id": "AAAUB5AAAAAJCriAAK", "geometry": {"type": "Point", "coordinates": [20.92124, 52.26048]}, "properties": {"Nazwa": "FUP Warszawa 46", "Adres": "ul. Gustawa Morcinka 5 lok. 14", "Pochodzenie danych": "Poczta Polska S.A.", "Aktualność danych": "07-12-2019"}}, {"type": "Feature", "_id": "AAAUB5AAAAAJCriAAM", "geometry": {"type": "Point", "coordinates": [21.16888, 52.25298]}, "properties": {"Nazwa": "FUP Warszawa 72", "Adres": "ul. Mieczysława Niedziałkowskiego 25", "Pochodzenie danych": "Poczta Polska S.A.", "Aktualność danych": "07-12-2019"}}, {"type": "Feature", "_id": "AAAUB5AAAAAJCriAAU", "geometry": {"type": "Point", "coordinates": [20.96121, 52.26131]}, "properties": {"Nazwa": "AP Warszawa", "Adres": "ul. Elbląska  37", "Pochodzenie danych": "Poczta Polska S.A.", "Aktualność danych": "07-12-2019"}}, {"type": "Feature", "_id": "AAAUB5AAAAAJCrjAAA", "geometry": {"type": "Point", "coordinates": [20.89755, 52.24204]}, "properties": {"Nazwa": "AP Warszawa", "Adres": "ul. Narwik 12 lok. 3", "Pochodzenie danych": "Poczta Polska S.A.", "Aktualność danych": "07-12-2019"}}, {"type": "Feature", "_id": "AAAUB5AAAAAJCrjAAB", "geometry": {"type": "Point", "coordinates": [21.17655, 52.20589]}, "properties": {"Nazwa": "AP Warszawa", "Adres": "ul. Żegańska 22 C", "Pochodzenie danych": "Poczta Polska S.A.", "Aktualność danych": "07-12-2019"}}, {"type": "Feature", "_id": "AAAUB5AAAAAJCrjAAC", "geometry": {"type": "Point", "coordinates": [21.07919, 52.27451]}, "properties": {"Nazwa": "AP Warszawa", "Adres": "ul. Zamkowa 3 lok. U5", "Pochodzenie danych": "Poczta Polska S.A.", "Aktualność danych": "07-12-2019"}}, {"type": "Feature", "_id": "AAAUB5AAAAAJCrjAAF", "geometry": {"type": "Point", "coordinates": [20.9115, 52.2371]}, "properties": {"Nazwa": "AP Warszawa", "Adres": "ul. Generała Waleriana Czumy 3B", "Pochodzenie danych": "Poczta Polska S.A.", "Aktualność danych": "07-12-2019"}}, {"type": "Feature", "_id": "AAAUB5AAAAAJCrjAAG", "geometry": {"type": "Point", "coordinates": [20.99737, 52.2388]}, "properties": {"Nazwa": "AP Warszawa", "Adres": "Plac Mirowski 1 lok. 109", "Pochodzenie danych": "Poczta Polska S.A.", "Aktualność danych": "07-12-2019"}}, {"type": "Feature", "_id": "AAAUB5AAAAAJCrjAAJ", "geometry": {"type": "Point", "coordinates": [20.94482, 52.27423]}, "properties": {"Nazwa": "AP Warszawa", "Adres": "ul. Gustawa Daniłowskiego 3", "Pochodzenie danych": "Poczta Polska S.A.", "Aktualność danych": "07-12-2019"}}, {"type": "Feature", "_id": "AAAUB5AAAAAJCrjAAK", "geometry": {"type": "Point", "coordinates": [20.9353, 52.23052]}, "properties": {"Nazwa": "AP Warszawa", "Adres": "ul. Szulborska 3/5 lok. U-9", "Pochodzenie danych": "Poczta Polska S.A.", "Aktualność danych": "07-12-2019"}}, {"type": "Feature", "_id": "AAAUB5AAAAAJCrjAAL", "geometry": {"type": "Point", "coordinates": [20.95895, 52.2293]}, "properties": {"Nazwa": "AP Warszawa", "Adres": "ul. Józefa Bema 87", "Pochodzenie danych": "Poczta Polska S.A.", "Aktualność danych": "07-12-2019"}}, {"type": "Feature", "_id": "AAAUB5AAAAAJCrjAAN", "geometry": {"type": "Point", "coordinates": [21.09008, 52.24536]}, "properties": {"Nazwa": "AP Warszawa", "Adres": "ul. Grochowska 178/184 lok. U-7", "Pochodzenie danych": "Poczta Polska S.A.", "Aktualność danych": "07-12-2019"}}, {"type": "Feature", "_id": "AAAUB5AAAAAJCrkAAB", "geometry": {"type": "Point", "coordinates": [21.04707, 52.34214]}, "properties": {"Nazwa": "AP Warszawa", "Adres": "ul. Ostródzka 252", "Pochodzenie danych": "Poczta Polska S.A.", "Aktualność danych": "07-12-2019"}}, {"type": "Feature", "_id": "AAAUB5AAAAAJCrkAAC", "geometry": {"type": "Point", "coordinates": [20.98659, 52.19647]}, "properties": {"Nazwa": "AP Warszawa", "Adres": "ul. Warowna 3", "Pochodzenie danych": "Poczta Polska S.A.", "Aktualność danych": "07-12-2019"}}, {"type": "Feature", "_id": "AAAUB5AAAAAJCrkAAD", "geometry": {"type": "Point", "coordinates": [20.89019, 52.2278]}, "properties": {"Nazwa": "AP Warszawa", "Adres": "ul. Generała Ludomiła Rayskiego 11 lok. U11", "Pochodzenie danych": "Poczta Polska S.A.", "Aktualność danych": "07-12-2019"}}, {"type": "Feature", "_id": "AAAUB5AAAAAJCrkAAH", "geometry": {"type": "Point", "coordinates": [20.96327, 52.24524]}, "properties": {"Nazwa": "AP Warszawa", "Adres": "ul. Banderii 4", "Pochodzenie danych": "Poczta Polska S.A.", "Aktualność danych": "07-12-2019"}}, {"type": "Feature", "_id": "AAAUB5AAAAAJCrkAAK", "geometry": {"type": "Point", "coordinates": [21.03006, 52.28365]}, "properties": {"Nazwa": "AP Warszawa", "Adres": "ul. Krzywińska 14 lok. U1", "Pochodzenie danych": "Poczta Polska S.A.", "Aktualność danych": "07-12-2019"}}, {"type": "Feature", "_id": "AAAUB5AAAAAJCrkAAL", "geometry": {"type": "Point", "coordinates": [21.01089, 52.23046]}, "properties": {"Nazwa": "FUP Warszawa 1", "Adres": "Stacja Metra Centrum", "Pochodzenie danych": "Poczta Polska S.A.", "Aktualność danych": "07-12-2019"}}, {"type": "Feature", "_id": "AAAUB5AAAAAJCrkAAM", "geometry": {"type": "Point", "coordinates": [20.98425, 52.25665]}, "properties": {"Nazwa": "FUP Warszawa 1", "Adres": "Aleja Jana Pawła II 82", "Pochodzenie danych": "Poczta Polska S.A.", "Aktualność danych": "07-12-2019"}}, {"type": "Feature", "_id": "AAAUB5AAAAAJCrkAAP", "geometry": {"type": "Point", "coordinates": [21.006, 52.23168]}, "properties": {"Nazwa": "FUP Warszawa 1", "Adres": "Plac Defilad 1", "Pochodzenie danych": "Poczta Polska S.A.", "Aktualność danych": "07-12-2019"}}, {"type": "Feature", "_id": "AAAUB5AAAAAJCrkAAQ", "geometry": {"type": "Point", "coordinates": [21.01616, 52.23741]}, "properties": {"Nazwa": "FUP Warszawa 1", "Adres": "ul. Świętokrzyska 12", "Pochodzenie danych": "Poczta Polska S.A.", "Aktualność danych": "07-12-2019"}}, {"type": "Feature", "_id": "AAAUB5AAAAAJCrlAAA", "geometry": {"type": "Point", "coordinates": [21.02038, 52.23821]}, "properties": {"Nazwa": "FUP Warszawa 1", "Adres": "ul. Mikołaja Kopernika 36/40", "Pochodzenie danych": "Poczta Polska S.A.", "Aktualność danych": "07-12-2019"}}, {"type": "Feature", "_id": "AAAUB5AAAAAJCrlAAF", "geometry": {"type": "Point", "coordinates": [21.01432, 52.27206]}, "properties": {"Nazwa": "FUP Warszawa 4", "Adres": "ul. Jagiellońska 59", "Pochodzenie danych": "Poczta Polska S.A.", "Aktualność danych": "07-12-2019"}}, {"type": "Feature", "_id": "AAAUB5AAAAAJCrlAAM", "geometry": {"type": "Point", "coordinates": [21.00585, 52.28839]}, "properties": {"Nazwa": "FUP Warszawa 9", "Adres": "ul. Jagiellońska 88", "Pochodzenie danych": "Poczta Polska S.A.", "Aktualność danych": "07-12-2019"}}, {"type": "Feature", "_id": "AAAUB5AAAAAJCrlAAN", "geometry": {"type": "Point", "coordinates": [21.04914, 52.29137]}, "properties": {"Nazwa": "FUP Warszawa 9", "Adres": "ul. Ludwika Kondratowicza 20", "Pochodzenie danych": "Poczta Polska S.A.", "Aktualność danych": "07-12-2019"}}, {"type": "Feature", "_id": "AAAUB5AAAAAJCrlAAO", "geometry": {"type": "Point", "coordinates": [21.05325, 52.29506]}, "properties": {"Nazwa": "FUP Warszawa 9", "Adres": "ul. Świętego Wincentego 99/3", "Pochodzenie danych": "Poczta Polska S.A.", "Aktualność danych": "07-12-2019"}}, {"type": "Feature", "_id": "AAAUB5AAAAAJCrlAAP", "geometry": {"type": "Point", "coordinates": [21.05733, 52.30344]}, "properties": {"Nazwa": "FUP Warszawa 9", "Adres": "ul. Głębocka 15 lok. 79", "Pochodzenie danych": "Poczta Polska S.A.", "Aktualność danych": "07-12-2019"}}, {"type": "Feature", "_id": "AAAUB5AAAAAJCrmAAF", "geometry": {"type": "Point", "coordinates": [21.01681, 52.21022]}, "properties": {"Nazwa": "FUP Warszawa 12", "Adres": "ul. Rakowiecka 2 A", "Pochodzenie danych": "Poczta Polska S.A.", "Aktualność danych": "07-12-2019"}}, {"type": "Feature", "_id": "AAAUB5AAAAAJCrmAAG", "geometry": {"type": "Point", "coordinates": [21.01151, 52.20855]}, "properties": {"Nazwa": "FUP Warszawa 12", "Adres": "ul. Rakowiecka 4 A", "Pochodzenie danych": "Poczta Polska S.A.", "Aktualność danych": "07-12-2019"}}, {"type": "Feature", "_id": "AAAUB5AAAAAJCrmAAM", "geometry": {"type": "Point", "coordinates": [21.01803, 52.22842]}, "properties": {"Nazwa": "FUP Warszawa 15", "Adres": "ul. Krucza 36", "Pochodzenie danych": "Poczta Polska S.A.", "Aktualność danych": "07-12-2019"}}, {"type": "Feature", "_id": "AAAUB5AAAAAJCrnAAH", "geometry": {"type": "Point", "coordinates": [20.90025, 52.24026]}, "properties": {"Nazwa": "FUP Warszawa 27", "Adres": "ul. Górczewska 228 lok. 56", "Pochodzenie danych": "Poczta Polska S.A.", "Aktualność danych": "07-12-2019"}}], "type": "FeatureCollection"}