{"features": [{"type": "Feature", "_id": "AAAVOXAAAAAAO2bAAA", "geometry": {"type": "Point", "coordinates": [20.93283, 52.2649]}, "properties": {"NAZWA_SERWIS": "Powstańców Śląskich 126B", "Opis": "Punkt ładowania samochodów elektrycznych", "Adres": "Powstańców Śląskich 126B", "Liczba gniazdek": "1", "Płatność": "", "Operator": "", "Aktualność danych": "październik 2018", "Pochodzenie danych": "Internet"}}, {"type": "Feature", "_id": "AAAVOXAAAAAAO2bAAC", "geometry": {"type": "Point", "coordinates": [20.98636, 52.23368]}, "properties": {"NAZWA_SERWIS": "Grzybowska 63", "Opis": "Punk ładowania samochodów elektrycznych", "Adres": "Grzybowska 63", "Liczba gniazdek": "1", "Płatność": "płatny", "Operator": "", "Aktualność danych": "październik 2018", "Pochodzenie danych": "Internet"}}, {"type": "Feature", "_id": "AAAVOXAAAAAAO2bAAD", "geometry": {"type": "Point", "coordinates": [20.98607, 52.23108]}, "properties": {"NAZWA_SERWIS": "Prosta 36", "Opis": "Punkt ładowana samochodów elektrycznych", "Adres": "Prosta 36", "Liczba gniazdek": "10", "Płatność": "", "Operator": "", "Aktualność danych": "październik 2018", "Pochodzenie danych": "Internet"}}, {"type": "Feature", "_id": "AAAVOXAAAAAAO2bAAE", "geometry": {"type": "Point", "coordinates": [20.99612, 52.23525]}, "properties": {"NAZWA_SERWIS": "al. Jana Pawła II", "Opis": "Punkt ładowania samochodów elektrycznych", "Adres": "al. Jana Pawła II", "Liczba gniazdek": "3", "Płatność": "płatny", "Operator": "", "Aktualność danych": "październik 2018", "Pochodzenie danych": "internet"}}, {"type": "Feature", "_id": "AAAVOXAAAAAAO2bAAF", "geometry": {"type": "Point", "coordinates": [20.99869, 52.23655]}, "properties": {"NAZWA_SERWIS": "Grzybowska 24", "Opis": "Punkt ładowania samochodów elektrycznych", "Adres": "Grzybowska 24", "Liczba gniazdek": "1", "Płatność": "", "Operator": "", "Aktualność danych": "październik 2018", "Pochodzenie danych": "Internet"}}, {"type": "Feature", "_id": "AAAVOXAAAAAAO2bAAG", "geometry": {"type": "Point", "coordinates": [21.00193, 52.23547]}, "properties": {"NAZWA_SERWIS": "Twarda 4", "Opis": "Punkt ładowania samochodów elektrycznych", "Adres": "Twarda 4", "Liczba gniazdek": "1", "Płatność": "", "Operator": "", "Aktualność danych": "październik 2018", "Pochodzenie danych": "Internet"}}, {"type": "Feature", "_id": "AAAVOXAAAAAAO2bAAI", "geometry": {"type": "Point", "coordinates": [21.00266, 52.22986]}, "properties": {"NAZWA_SERWIS": "Złota 59", "Opis": "Punkt ładowania samochodów elektrycznych", "Adres": "Złota 59", "Liczba gniazdek": "", "Płatność": "Płatny", "Operator": "", "Aktualność danych": "październik 2018", "Pochodzenie danych": "Internet"}}, {"type": "Feature", "_id": "AAAVOXAAAAAAO2bAAJ", "geometry": {"type": "Point", "coordinates": [20.99467, 52.22997]}, "properties": {"NAZWA_SERWIS": "Twarda 52", "Opis": "Punkt ładowania samochodów elektrycznych", "Adres": "Twarda 52", "Liczba gniazdek": "1", "Płatność": "", "Operator": "", "Aktualność danych": "październik 2018", "Pochodzenie danych": "Internet"}}, {"type": "Feature", "_id": "AAAVOXAAAAAAO2bAAK", "geometry": {"type": "Point", "coordinates": [21.01202, 52.22506]}, "properties": {"NAZWA_SERWIS": "Poznańska 14", "Opis": "Punkt ładowania samochodów elektrycznych", "Adres": "Poznańska 14", "Liczba gniazdek": "", "Płatność": "", "Operator": "", "Aktualność danych": "październik 2018", "Pochodzenie danych": "Internet"}}, {"type": "Feature", "_id": "AAAVOXAAAAAAO2bAAL", "geometry": {"type": "Point", "coordinates": [21.01177, 52.2252]}, "properties": {"NAZWA_SERWIS": "Poznańska 15", "Opis": "Punkt ładowania samochodów elektrycznych", "Adres": "Poznańska 15", "Liczba gniazdek": "1", "Płatność": "", "Operator": "", "Aktualność danych": "październik 2018", "Pochodzenie danych": "internet"}}, {"type": "Feature", "_id": "AAAVOXAAAAAAO2bAAM", "geometry": {"type": "Point", "coordinates": [21.01099, 52.22217]}, "properties": {"NAZWA_SERWIS": "Koszykowa 63", "Opis": "Punkt ładowania samochodów elektrycznych", "Adres": "Koszykowa 63", "Liczba gniazdek": "", "Płatność": "bezpłatny", "Operator": "", "Aktualność danych": "październik 2018", "Pochodzenie danych": "internet"}}, {"type": "Feature", "_id": "AAAVOXAAAAAAO2bAAN", "geometry": {"type": "Point", "coordinates": [20.97348, 52.22099]}, "properties": {"NAZWA_SERWIS": "al. Jerozolimskie 134", "Opis": "Punkt ładowania samochodów elektrycznych", "Adres": "al. Jerozolimskie 134", "Liczba gniazdek": "", "Płatność": "", "Operator": "", "Aktualność danych": "październik 2018", "Pochodzenie danych": "internet"}}, {"type": "Feature", "_id": "AAAVOXAAAAAAO2bAAQ", "geometry": {"type": "Point", "coordinates": [20.99885, 52.18512]}, "properties": {"NAZWA_SERWIS": "Konstruktorska 5", "Opis": "Punkt ładowania samochodów elektrycznych", "Adres": "Konstruktorska 5", "Liczba gniazdek": "1", "Płatność": "", "Operator": "", "Aktualność danych": "październik 2018", "Pochodzenie danych": "Internet"}}, {"type": "Feature", "_id": "AAAVOXAAAAAAO2bAAX", "geometry": {"type": "Point", "coordinates": [21.02646, 52.29949]}, "properties": {"NAZWA_SERWIS": "Annopol 2", "Opis": "Punkt ładowania samochodów elektrycznych", "Adres": "Annopol 2", "Liczba gniazdek": "2", "Płatność": "", "Operator": "", "Aktualność danych": "październik 2018", "Pochodzenie danych": "internet"}}, {"type": "Feature", "_id": "AAAVOXAAAAAAO2bAAa", "geometry": {"type": "Point", "coordinates": [21.08227, 52.16382]}, "properties": {"NAZWA_SERWIS": "F. Klimczaka 1", "Opis": "Punkt ładowania samochodów elektrycznych", "Adres": "F. Klimczaka 1", "Liczba gniazdek": "4", "Płatność": "", "Operator": "", "Aktualność danych": "październik 2018", "Pochodzenie danych": "Internet"}}, {"type": "Feature", "_id": "AAAVOXAAAAAAO2bAAb", "geometry": {"type": "Point", "coordinates": [21.0896, 52.16029]}, "properties": {"NAZWA_SERWIS": "S. Kostki Potockiego 2A", "Opis": "Punkt ładowania samochodów elektrycznych", "Adres": "S. Kostki Potockiego 2A", "Liczba gniazdek": "3", "Płatność": "", "Operator": "", "Aktualność danych": "październik 2018", "Pochodzenie danych": "Internet"}}, {"type": "Feature", "_id": "AAAVOXAAAAAAO2bAAc", "geometry": {"type": "Point", "coordinates": [21.03249, 52.15597]}, "properties": {"NAZWA_SERWIS": "al. Komisji Edukacji Narodowej 95", "Opis": "Punkt ładowania samochodów elektrycznych", "Adres": "al. Komisji Edukacji Narodowej 95", "Liczba gniazdek": "1", "Płatność": "", "Operator": "", "Aktualność danych": "październik 2018", "Pochodzenie danych": "Internet"}}, {"type": "Feature", "_id": "AAAVOXAAAAAAO2bAAj", "geometry": {"type": "Point", "coordinates": [20.99945, 52.23284]}, "properties": {"NAZWA_SERWIS": "Rondo ONZ 1, 7 piętro biurowca Rondo 1", "Opis": "Punkt ładowania samochodów elektrycznych MGPA", "Adres": "Rondo ONZ 1, 7 piętro biurowca Rondo 1", "Liczba gniazdek": "2", "Płatność": "Bezpłatny", "Operator": "MGPA", "Aktualność danych": "październik 2014", "Pochodzenie danych": "internet / kontakt telefoniczny"}}, {"type": "Feature", "_id": "AAAVOXAAAAAAO2bAAl", "geometry": {"type": "Point", "coordinates": [21.07315, 52.25207]}, "properties": {"NAZWA_SERWIS": "Mińska 69, Auto Gold Serwis", "Opis": "Punkt ładowania samochodów elektrycznych Auto Serwis", "Adres": "Mińska 69, Auto Gold Serwis", "Liczba gniazdek": "2", "Płatność": "Bezpłatny", "Operator": "Auto Serwis", "Aktualność danych": "październik 2014", "Pochodzenie danych": "internet / kontakt telefoniczny"}}, {"type": "Feature", "_id": "AAAVOXAAAAAAO2bAAm", "geometry": {"type": "Point", "coordinates": [20.95704, 52.2215]}, "properties": {"NAZWA_SERWIS": "J. K. Ordona 1, ChegEngine AutoSerwis", "Opis": "Punkt ładowania samochodów elektrycznych Auto Serwis", "Adres": "J. K. Ordona 1, ChegEngine AutoSerwis", "Liczba gniazdek": "2", "Płatność": "Bezpłatny", "Operator": "Auto Serwis", "Aktualność danych": "październik 2014", "Pochodzenie danych": "internet / kontakt telefoniczny"}}, {"type": "Feature", "_id": "AAAVOXAAAAAAO2bAAp", "geometry": {"type": "Point", "coordinates": [21.00724, 52.22466]}, "properties": {"NAZWA_SERWIS": "Hoża 63/67", "Opis": "Punkt ładowania samochodów elektrycznych galactico.pl", "Adres": "Hoża 63/67", "Liczba gniazdek": "3", "Płatność": "Pre-paid", "Operator": "galactico.pl", "Aktualność danych": "październik 2018", "Pochodzenie danych": "internet / kontakt telefoniczny"}}, {"type": "Feature", "_id": "AAAVOXAAAAAAO2bAAq", "geometry": {"type": "Point", "coordinates": [21.04013, 52.30089]}, "properties": {"NAZWA_SERWIS": "Krasnobrodzka 5, Centrum Motoryzacyjne Toruńska", "Opis": "Punkt ładowania samochodów elektrycznych", "Adres": "Krasnobrodzka 5, Centrum Motoryzacyjne Toruńska", "Liczba gniazdek": "1", "Płatność": " ", "Operator": " ", "Aktualność danych": "październik 2014", "Pochodzenie danych": "internet / kontakt telefoniczny"}}, {"type": "Feature", "_id": "AAAVOXAAAAAAO2cAAE", "geometry": {"type": "Point", "coordinates": [20.9508, 52.20273]}, "properties": {"NAZWA_SERWIS": "Włodarzewska 68", "Opis": "Punkt ładowania samochodów elektrycznych RWE", "Adres": "Włodarzewska 68", "Liczba gniazdek": "2", "Płatność": "Bezpłatny", "Operator": "Innogy", "Aktualność danych": "październik 2014", "Pochodzenie danych": "Innogy"}}, {"type": "Feature", "_id": "AAAVOXAAAAAAO2cAAF", "geometry": {"type": "Point", "coordinates": [21.08162, 52.30814]}, "properties": {"NAZWA_SERWIS": "Toruńska 107A", "Opis": "Punkt ładowania samochodów elektrycznych", "Adres": "Toruńska 107A", "Liczba gniazdek": "1", "Płatność": "", "Operator": "", "Aktualność danych": "październik 2018", "Pochodzenie danych": "internet"}}, {"type": "Feature", "_id": "AAAVOXAAAAAAO2cAAG", "geometry": {"type": "Point", "coordinates": [21.01418, 52.27116]}, "properties": {"NAZWA_SERWIS": "Jagiellońska 57", "Opis": "Punkt ładowania samochodów elektrycznych", "Adres": "Jagiellońska 57", "Liczba gniazdek": "1", "Płatność": "", "Operator": "", "Aktualność danych": "październik 2018", "Pochodzenie danych": "internet"}}, {"type": "Feature", "_id": "AAAVOXAAAAAAO2cAAH", "geometry": {"type": "Point", "coordinates": [21.03889, 52.25511]}, "properties": {"NAZWA_SERWIS": "Targowa 72", "Opis": "Punkt ładowania samochodów elektrycznych", "Adres": "Targowa 72", "Liczba gniazdek": "4", "Płatność": "", "Operator": "", "Aktualność danych": "październik 2018", "Pochodzenie danych": "internet"}}, {"type": "Feature", "_id": "AAAVOXAAAAAAO2cAAI", "geometry": {"type": "Point", "coordinates": [21.04446, 52.25484]}, "properties": {"NAZWA_SERWIS": "Ząbkowska 29", "Opis": "Punkt ładowania samochodów elektrycznych", "Adres": "Ząbkowska 29", "Liczba gniazdek": "10", "Płatność": "", "Operator": "", "Aktualność danych": "październik 2018", "Pochodzenie danych": "internet"}}, {"type": "Feature", "_id": "AAAVOXAAAAAAO2cAAK", "geometry": {"type": "Point", "coordinates": [21.11332, 52.23193]}, "properties": {"NAZWA_SERWIS": "Ostrobramska 73", "Opis": "Punkt ładowania samochodów elektrycznych", "Adres": "Ostrobramska 73", "Liczba gniazdek": "", "Płatność": "", "Operator": "", "Aktualność danych": "październik 2018", "Pochodzenie danych": "internet"}}, {"type": "Feature", "_id": "AAAVOXAAAAAAO2cAAL", "geometry": {"type": "Point", "coordinates": [21.12371, 52.23343]}, "properties": {"NAZWA_SERWIS": "Lotnicza 3/5", "Opis": "Punkt ładowania samochodów elektrycznych", "Adres": "Lotnicza 3/5", "Liczba gniazdek": "1", "Płatność": "", "Operator": "", "Aktualność danych": "październik 2018", "Pochodzenie danych": "Internet"}}, {"type": "Feature", "_id": "AAAVOXAAAAAAO2cAAM", "geometry": {"type": "Point", "coordinates": [21.16823, 52.20631]}, "properties": {"NAZWA_SERWIS": "K. Szpotańskiego 4", "Opis": "Punkt ładowania samochodów elektrycznych", "Adres": "K. Szpotańskiego 4", "Liczba gniazdek": "1", "Płatność": "", "Operator": "", "Aktualność danych": "październik 2018", "Pochodzenie danych": "Internet"}}, {"type": "Feature", "_id": "AAAVOXAAAAAAO2cAAN", "geometry": {"type": "Point", "coordinates": [21.18976, 52.18159]}, "properties": {"NAZWA_SERWIS": "Patriotów 193", "Opis": "Punkt ładowania samochodów elektrycznych", "Adres": "Patriotów 193", "Liczba gniazdek": "", "Płatność": "", "Operator": "", "Aktualność danych": "październik 2018", "Pochodzenie danych": "Internet"}}, {"type": "Feature", "_id": "AAAVOXAAAAAAO2cAAO", "geometry": {"type": "Point", "coordinates": [21.14222, 52.18581]}, "properties": {"NAZWA_SERWIS": "Skalnicowa 21", "Opis": "Punkt ładowania samochodów elektrycznych", "Adres": "Skalnicowa 21", "Liczba gniazdek": "3", "Płatność": "", "Operator": "", "Aktualność danych": "październik 2018", "Pochodzenie danych": "internet"}}, {"type": "Feature", "_id": "AAAVOXAAAAAAO2cAAP", "geometry": {"type": "Point", "coordinates": [20.9276, 52.29039]}, "properties": {"NAZWA_SERWIS": "J. Kasprowicza 145  ", "Opis": "Punkt ładowania samochodów elektrycznych", "Adres": "J. Kasprowicza 145  ", "Liczba gniazdek": "4", "Płatność": "", "Operator": "", "Aktualność danych": "październik 2018", "Pochodzenie danych": "internet"}}, {"type": "Feature", "_id": "AAAVOXAAAAAAO2cAAQ", "geometry": {"type": "Point", "coordinates": [20.93115, 52.29008]}, "properties": {"NAZWA_SERWIS": "J. Kasprowicza 119", "Opis": "Punkt ładowania samochodów elektrycznych", "Adres": "J. Kasprowicza 119", "Liczba gniazdek": "2", "Płatność": "", "Operator": "", "Aktualność danych": "październik 2018", "Pochodzenie danych": "Internet"}}, {"type": "Feature", "_id": "AAAVOXAAAAAAO2cAAR", "geometry": {"type": "Point", "coordinates": [20.97168, 52.27352]}, "properties": {"NAZWA_SERWIS": "Kolektorska 4", "Opis": "Punkt ładowania samochodów elektrycznych", "Adres": "Kolektorska 4", "Liczba gniazdek": "2", "Płatność": "", "Operator": "", "Aktualność danych": "październik 2018", "Pochodzenie danych": "Internet"}}], "type": "FeatureCollection"}