{"features": [{"type": "Feature", "_id": "704", "geometry": {"type": "Point", "coordinates": [21.06814, 52.17028]}, "properties": {"NAZWA_SERWIS": "przystanejk 04 (np.116 -> Tor Stegny)", "Typ": "Biletomat stacjonarny", "Lokalizacja": "Jana III Sobieskiego", "Opis": "przystanejk 04 (np.116 -> Tor Stegny)", "Numer automatu": "M156", "Pochodzenie danych": "ZTM", "Aktualność danych": "czerwiec 2020"}}, {"type": "Feature", "_id": "352", "geometry": {"type": "Point", "coordinates": [21.05214, 52.14613]}, "properties": {"NAZWA_SERWIS": "Przy ekspedycji", "Typ": "Biletomat stacjonarny", "Lokalizacja": "F. Płaskowickiej", "Opis": "Przy ekspedycji", "Numer automatu": "1003", "Pochodzenie danych": "ZTM", "Aktualność danych": "czerwiec 2020"}}, {"type": "Feature", "_id": "278", "geometry": {"type": "Point", "coordinates": [21.11675, 52.27855]}, "properties": {"NAZWA_SERWIS": "Przystanek Powstańców, rejon Kauflandu", "Typ": "Biletomat stacjonarny", "Lokalizacja": "Powstańców", "Opis": "Przystanek Powstańców, rejon Kauflandu", "Numer automatu": "366", "Pochodzenie danych": "ZTM", "Aktualność danych": "czerwiec 2020"}}, {"type": "Feature", "_id": "447", "geometry": {"type": "Point", "coordinates": [20.79861, 52.16806]}, "properties": {"NAZWA_SERWIS": "przejście podziemne, zejście na perony dworca", "Typ": "Biletomat stacjonarny", "Lokalizacja": "Sienkiewicza", "Opis": "przejście podziemne, zejście na perony dworca", "Numer automatu": "1105", "Pochodzenie danych": "ZTM", "Aktualność danych": "czerwiec 2020"}}, {"type": "Feature", "_id": "466", "geometry": {"type": "Point", "coordinates": [21.04915, 52.26988]}, "properties": {"NAZWA_SERWIS": "przystanek 01 (np. 160, 517 --> DKS Targówek)", "Typ": "Biletomat stacjonarny", "Lokalizacja": "M. Ossowskiego", "Opis": "przystanek 01 (np. 160, 517 --> DKS Targówek)", "Numer automatu": "T002", "Pochodzenie danych": "ZTM", "Aktualność danych": "czerwiec 2020"}}, {"type": "Feature", "_id": "10", "geometry": {"type": "Point", "coordinates": [21.00554, 52.21706]}, "properties": {"NAZWA_SERWIS": "przejście podziemne – w okolicy zejścia na przystanek GUS 05 ", "Typ": "Biletomat stacjonarny", "Lokalizacja": "al. Niepodległości", "Opis": "przejście podziemne – w okolicy zejścia na przystanek GUS 05 ", "Numer automatu": "10", "Pochodzenie danych": "ZTM", "Aktualność danych": "czerwiec 2020"}}, {"type": "Feature", "_id": "51", "geometry": {"type": "Point", "coordinates": [21.17936, 52.41611]}, "properties": {"NAZWA_SERWIS": "przystanek 02 (np.738-> Os. Victoria) ", "Typ": "Biletomat stacjonarny", "Lokalizacja": "Al. Jana Pawła II", "Opis": "przystanek 02 (np.738-> Os. Victoria) ", "Numer automatu": "51", "Pochodzenie danych": "ZTM", "Aktualność danych": "czerwiec 2020"}}, {"type": "Feature", "_id": "52", "geometry": {"type": "Point", "coordinates": [20.92847, 52.38776]}, "properties": {"NAZWA_SERWIS": "przystanek 01 (np. 517--> Dw. Zachodni)", "Typ": "Biletomat stacjonarny", "Lokalizacja": "Warszawska", "Opis": "przystanek 01 (np. 517--> Dw. Zachodni)", "Numer automatu": "52", "Pochodzenie danych": "ZTM", "Aktualność danych": "czerwiec 2020"}}, {"type": "Feature", "_id": "56", "geometry": {"type": "Point", "coordinates": [21.02602, 52.077]}, "properties": {"NAZWA_SERWIS": "przystanek 01 (np. 710-> Metro Wilanowska)", "Typ": "Biletomat stacjonarny", "Lokalizacja": "Wrocławska", "Opis": "przystanek 01 (np. 710-> Metro Wilanowska)", "Numer automatu": "56", "Pochodzenie danych": "ZTM", "Aktualność danych": "czerwiec 2020"}}, {"type": "Feature", "_id": "57", "geometry": {"type": "Point", "coordinates": [21.0272, 52.0732]}, "properties": {"NAZWA_SERWIS": "przystanek 01 (np. Głosków Szkoła)", "Typ": "Biletomat stacjonarny", "Lokalizacja": "Św. Wincentego", "Opis": "przystanek 01 (np. Głosków Szkoła)", "Numer automatu": "57", "Pochodzenie danych": "ZTM", "Aktualność danych": "czerwiec 2020"}}, {"type": "Feature", "_id": "175", "geometry": {"type": "Point", "coordinates": [21.02153, 52.21081]}, "properties": {"NAZWA_SERWIS": "przystanek 07 (np. 131 -> Sadyba)", "Typ": "Biletomat stacjonarny", "Lokalizacja": "pl. Unii Lubelskiej", "Opis": "przystanek 07 (np. 131 -> Sadyba)", "Numer automatu": "220", "Pochodzenie danych": "ZTM", "Aktualność danych": "czerwiec 2020"}}, {"type": "Feature", "_id": "841", "geometry": {"type": "Point", "coordinates": [20.99525, 52.22731]}, "properties": {"NAZWA_SERWIS": "ul. Żelazna / Al. Solidarności  Warszawa 00-894", "Typ": "Biletomat stacjonarny", "Lokalizacja": "Żelazna", "Opis": "ul. Żelazna / Al. Solidarności  Warszawa 00-894", "Numer automatu": "361", "Pochodzenie danych": "ZTM", "Aktualność danych": "czerwiec 2020"}}, {"type": "Feature", "_id": "173", "geometry": {"type": "Point", "coordinates": [21.03455, 52.20297]}, "properties": {"NAZWA_SERWIS": "przystanek 02 (np. 501, 519 kierunek Centrum)", "Typ": "Biletomat stacjonarny", "Lokalizacja": "Belwederska", "Opis": "przystanek 02 (np. 501, 519 kierunek Centrum)", "Numer automatu": "218", "Pochodzenie danych": "ZTM", "Aktualność danych": "czerwiec 2020"}}, {"type": "Feature", "_id": "715", "geometry": {"type": "Point", "coordinates": [21.08147, 52.23589]}, "properties": {"NAZWA_SERWIS": "przystanek 03 (np. 520 -> Centrum ", "Typ": "Biletomat stacjonarny", "Lokalizacja": "Ostrobramska", "Opis": "przystanek 03 (np. 520 -> Centrum ", "Numer automatu": "M166", "Pochodzenie danych": "ZTM", "Aktualność danych": "czerwiec 2020"}}, {"type": "Feature", "_id": "333", "geometry": {"type": "Point", "coordinates": [20.99074, 52.23431]}, "properties": {"NAZWA_SERWIS": "Przed siedzibą ZTM ", "Typ": "Biletomat stacjonarny", "Lokalizacja": "Żelazna", "Opis": "Przed siedzibą ZTM ", "Numer automatu": "469", "Pochodzenie danych": "ZTM", "Aktualność danych": "czerwiec 2020"}}, {"type": "Feature", "_id": "334", "geometry": {"type": "Point", "coordinates": [20.99079, 52.2342]}, "properties": {"NAZWA_SERWIS": "Przed siedzibą ZTM ", "Typ": "Biletomat stacjonarny", "Lokalizacja": "Żelazna", "Opis": "Przed siedzibą ZTM ", "Numer automatu": "470", "Pochodzenie danych": "ZTM", "Aktualność danych": "czerwiec 2020"}}, {"type": "Feature", "_id": "351", "geometry": {"type": "Point", "coordinates": [20.92946, 52.39444]}, "properties": {"NAZWA_SERWIS": "przystanek 03 (np.. 731-> Żerań FSO)", "Typ": "Biletomat stacjonarny", "Lokalizacja": "Rondo Piłsudskiego", "Opis": "przystanek 03 (np.. 731-> Żerań FSO)", "Numer automatu": "1002", "Pochodzenie danych": "ZTM", "Aktualność danych": "czerwiec 2020"}}, {"type": "Feature", "_id": "353", "geometry": {"type": "Point", "coordinates": [21.10924, 52.326]}, "properties": {"NAZWA_SERWIS": "ul. Sportowa teren parkingu", "Typ": "Biletomat stacjonarny", "Lokalizacja": "Sportowa", "Opis": "ul. Sportowa teren parkingu", "Numer automatu": "1003", "Pochodzenie danych": "ZTM", "Aktualność danych": "czerwiec 2020"}}, {"type": "Feature", "_id": "371", "geometry": {"type": "Point", "coordinates": [21.13463, 52.35854]}, "properties": {"NAZWA_SERWIS": "W pasie zieleni Skweru im. Księcia Markiewicza niepodal przystanków Struga", "Typ": "Biletomat stacjonarny", "Lokalizacja": "Al. Piłsudskiego", "Opis": "W pasie zieleni Skweru im. Księcia Markiewicza niepodal przystanków Struga", "Numer automatu": "1025", "Pochodzenie danych": "ZTM", "Aktualność danych": "czerwiec 2020"}}, {"type": "Feature", "_id": "374", "geometry": {"type": "Point", "coordinates": [21.08586, 52.30534]}, "properties": {"NAZWA_SERWIS": "wej. główne od strony krańca \"CH Marki 01\"", "Typ": "Biletomat stacjonarny", "Lokalizacja": "Al. Piłsudskiego", "Opis": "wej. główne od strony krańca \"CH Marki 01\"", "Numer automatu": "1028", "Pochodzenie danych": "ZTM", "Aktualność danych": "czerwiec 2020"}}, {"type": "Feature", "_id": "391", "geometry": {"type": "Point", "coordinates": [20.8435, 52.25071]}, "properties": {"NAZWA_SERWIS": "przy budynku Urzędu", "Typ": "Biletomat stacjonarny", "Lokalizacja": "Rynek", "Opis": "przy budynku Urzędu", "Numer automatu": "1045", "Pochodzenie danych": "ZTM", "Aktualność danych": "czerwiec 2020"}}, {"type": "Feature", "_id": "396", "geometry": {"type": "Point", "coordinates": [20.91334, 52.41139]}, "properties": {"NAZWA_SERWIS": "peron", "Typ": "Biletomat stacjonarny", "Lokalizacja": "Kolejowa", "Opis": "peron", "Numer automatu": "1050", "Pochodzenie danych": "ZTM", "Aktualność danych": "czerwiec 2020"}}, {"type": "Feature", "_id": "407", "geometry": {"type": "Point", "coordinates": [21.14945, 52.22352]}, "properties": {"NAZWA_SERWIS": "peron", "Typ": "Biletomat stacjonarny", "Lokalizacja": "Widoczna", "Opis": "peron", "Numer automatu": "1062", "Pochodzenie danych": "ZTM", "Aktualność danych": "czerwiec 2020"}}, {"type": "Feature", "_id": "587", "geometry": {"type": "Point", "coordinates": [21.23571, 52.34511]}, "properties": {"NAZWA_SERWIS": "UL. Warszawska 5A, obok Urzędu pracy", "Typ": "Biletomat stacjonarny", "Lokalizacja": "Warszawska", "Opis": "UL. Warszawska 5A, obok Urzędu pracy", "Numer automatu": "M020", "Pochodzenie danych": "ZTM", "Aktualność danych": "czerwiec 2020"}}, {"type": "Feature", "_id": "654", "geometry": {"type": "Point", "coordinates": [21.0356, 52.4212]}, "properties": {"NAZWA_SERWIS": "przy budynku Urzędu", "Typ": "Biletomat stacjonarny", "Lokalizacja": "Jana Kazimierza", "Opis": "przy budynku Urzędu", "Numer automatu": "M106", "Pochodzenie danych": "ZTM", "Aktualność danych": "czerwiec 2020"}}, {"type": "Feature", "_id": "705", "geometry": {"type": "Point", "coordinates": [21.06814, 52.17028]}, "properties": {"NAZWA_SERWIS": "przystanejk 04 (np.116 -> Tor Stegny)", "Typ": "Biletomat stacjonarny", "Lokalizacja": "Jana III Sobieskiego", "Opis": "przystanejk 04 (np.116 -> Tor Stegny)", "Numer automatu": "M156", "Pochodzenie danych": "ZTM", "Aktualność danych": "czerwiec 2020"}}, {"type": "Feature", "_id": "431", "geometry": {"type": "Point", "coordinates": [21.11919, 52.33807]}, "properties": {"NAZWA_SERWIS": "ul. Duża teren parkingu", "Typ": "Biletomat stacjonarny", "Lokalizacja": "Duża", "Opis": "ul. Duża teren parkingu", "Numer automatu": "1088", "Pochodzenie danych": "ZTM", "Aktualność danych": "czerwiec 2020"}}, {"type": "Feature", "_id": "435", "geometry": {"type": "Point", "coordinates": [20.91797, 52.37764]}, "properties": {"NAZWA_SERWIS": "okolice budynku urzędu od strony ul. Modlińskiej", "Typ": "Biletomat stacjonarny", "Lokalizacja": "Modlińska", "Opis": "okolice budynku urzędu od strony ul. Modlińskiej", "Numer automatu": "1092", "Pochodzenie danych": "ZTM", "Aktualność danych": "czerwiec 2020"}}, {"type": "Feature", "_id": "442", "geometry": {"type": "Point", "coordinates": [21.10771, 52.3266]}, "properties": {"NAZWA_SERWIS": "przy UM", "Typ": "Biletomat stacjonarny", "Lokalizacja": "Al. Piłsudskiego", "Opis": "przy UM", "Numer automatu": "1099", "Pochodzenie danych": "ZTM", "Aktualność danych": "czerwiec 2020"}}, {"type": "Feature", "_id": "445", "geometry": {"type": "Point", "coordinates": [20.93772, 52.3363]}, "properties": {"NAZWA_SERWIS": "przystanek 02 - przy ul.Odkrytej 62 SIMPLYMERKET", "Typ": "Biletomat stacjonarny", "Lokalizacja": "Odkryta", "Opis": "przystanek 02 - przy ul.Odkrytej 62 SIMPLYMERKET", "Numer automatu": "1103", "Pochodzenie danych": "ZTM", "Aktualność danych": "czerwiec 2020"}}, {"type": "Feature", "_id": "448", "geometry": {"type": "Point", "coordinates": [21.29765, 52.24128]}, "properties": {"NAZWA_SERWIS": "przed wejściem do budynku stacji ", "Typ": "Biletomat stacjonarny", "Lokalizacja": "Bema", "Opis": "przed wejściem do budynku stacji ", "Numer automatu": "1106", "Pochodzenie danych": "ZTM", "Aktualność danych": "czerwiec 2020"}}, {"type": "Feature", "_id": "449", "geometry": {"type": "Point", "coordinates": [21.11709, 52.09571]}, "properties": {"NAZWA_SERWIS": "przy budynku Urzędu", "Typ": "Biletomat stacjonarny", "Lokalizacja": "Warszawska", "Opis": "przy budynku Urzędu", "Numer automatu": "1107", "Pochodzenie danych": "ZTM", "Aktualność danych": "czerwiec 2020"}}, {"type": "Feature", "_id": "458", "geometry": {"type": "Point", "coordinates": [20.90454, 52.1813]}, "properties": {"NAZWA_SERWIS": "Na peronie ", "Typ": "Biletomat stacjonarny", "Lokalizacja": "Centralna", "Opis": "Na peronie ", "Numer automatu": "1192", "Pochodzenie danych": "ZTM", "Aktualność danych": "czerwiec 2020"}}, {"type": "Feature", "_id": "577", "geometry": {"type": "Point", "coordinates": [20.65125, 52.44614]}, "properties": {"NAZWA_SERWIS": "Strefa ogólnodostępna ", "Typ": "Biletomat stacjonarny", "Lokalizacja": "Gen. Thommée", "Opis": "Strefa ogólnodostępna ", "Numer automatu": "M010", "Pochodzenie danych": "ZTM", "Aktualność danych": "czerwiec 2020"}}, {"type": "Feature", "_id": "578", "geometry": {"type": "Point", "coordinates": [20.65197, 52.44634]}, "properties": {"NAZWA_SERWIS": "Strefa strzeżona ", "Typ": "Biletomat stacjonarny", "Lokalizacja": "Gen. Thommée", "Opis": "Strefa strzeżona ", "Numer automatu": "M011", "Pochodzenie danych": "ZTM", "Aktualność danych": "czerwiec 2020"}}, {"type": "Feature", "_id": "718", "geometry": {"type": "Point", "coordinates": [21.21429, 52.33703]}, "properties": {"NAZWA_SERWIS": "przy budynku Urzędu", "Typ": "Biletomat stacjonarny", "Lokalizacja": "Wołomińska", "Opis": "przy budynku Urzędu", "Numer automatu": "M169", "Pochodzenie danych": "ZTM", "Aktualność danych": "czerwiec 2020"}}, {"type": "Feature", "_id": "793", "geometry": {"type": "Point", "coordinates": [20.90204, 52.33134]}, "properties": {"NAZWA_SERWIS": "przystanek POLMO Łomianki, ul. Warszawska 31 Łomianki", "Typ": "Biletomat stacjonarny", "Lokalizacja": "Warszawska", "Opis": "przystanek POLMO Łomianki, ul. Warszawska 31 Łomianki", "Numer automatu": "2701", "Pochodzenie danych": "ZTM", "Aktualność danych": "czerwiec 2020"}}, {"type": "Feature", "_id": "799", "geometry": {"type": "Point", "coordinates": [20.58601, 52.25767]}, "properties": {"NAZWA_SERWIS": "przystanek Gmina Leszno, ul. Sochaczewska", "Typ": "Biletomat stacjonarny", "Lokalizacja": "Sochaczewska", "Opis": "przystanek Gmina Leszno, ul. Sochaczewska", "Numer automatu": "2712", "Pochodzenie danych": "ZTM", "Aktualność danych": "czerwiec 2020"}}, {"type": "Feature", "_id": "273", "geometry": {"type": "Point", "coordinates": [20.73371, 52.25264]}, "properties": {"NAZWA_SERWIS": "Rejon strażnicy OSP w gminie Stare Babice", "Typ": "Biletomat stacjonarny", "Lokalizacja": "Warszawska", "Opis": "Rejon strażnicy OSP w gminie Stare Babice", "Numer automatu": "360", "Pochodzenie danych": "ZTM", "Aktualność danych": "czerwiec 2020"}}, {"type": "Feature", "_id": "176", "geometry": {"type": "Point", "coordinates": [21.27775, 52.24758]}, "properties": {"NAZWA_SERWIS": "obok kas biletowych", "Typ": "Biletomat stacjonarny", "Lokalizacja": "Dworcowa", "Opis": "obok kas biletowych", "Numer automatu": "221", "Pochodzenie danych": "ZTM", "Aktualność danych": "czerwiec 2020"}}, {"type": "Feature", "_id": "844", "geometry": {"type": "Point", "coordinates": [21.02085, 52.21281]}, "properties": {"NAZWA_SERWIS": "ul. Puławska 230 Warszawa 02-670", "Typ": "Biletomat stacjonarny", "Lokalizacja": "Puławska", "Opis": "ul. Puławska 230 Warszawa 02-670", "Numer automatu": "377", "Pochodzenie danych": "ZTM", "Aktualność danych": "czerwiec 2020"}}, {"type": "Feature", "_id": "357", "geometry": {"type": "Point", "coordinates": [20.81557, 52.29276]}, "properties": {"NAZWA_SERWIS": "przy budynku urzędu ", "Typ": "Biletomat stacjonarny", "Lokalizacja": "3 Maja", "Opis": "przy budynku urzędu ", "Numer automatu": "1008", "Pochodzenie danych": "ZTM", "Aktualność danych": "czerwiec 2020"}}, {"type": "Feature", "_id": "629", "geometry": {"type": "Point", "coordinates": [20.65043, 52.44598]}, "properties": {"NAZWA_SERWIS": "przy wejściu do budynku terminala", "Typ": "Biletomat stacjonarny", "Lokalizacja": "Gen. Thommée", "Opis": "przy wejściu do budynku terminala", "Numer automatu": "M061", "Pochodzenie danych": "ZTM", "Aktualność danych": "czerwiec 2020"}}, {"type": "Feature", "_id": "570", "geometry": {"type": "Point", "coordinates": [20.66477, 52.12122]}, "properties": {"NAZWA_SERWIS": "ul. Dębowa 8", "Typ": "Biletomat stacjonarny", "Lokalizacja": "Warszawska", "Opis": "ul. Dębowa 8", "Numer automatu": "M003", "Pochodzenie danych": "ZTM", "Aktualność danych": "czerwiec 2020"}}, {"type": "Feature", "_id": "795", "geometry": {"type": "Point", "coordinates": [20.85691, 52.34625]}, "properties": {"NAZWA_SERWIS": "przystanek Dziekanów Leśny 01", "Typ": "Biletomat stacjonarny", "Lokalizacja": "Konopnickiej", "Opis": "przystanek Dziekanów Leśny 01", "Numer automatu": "2704", "Pochodzenie danych": "ZTM", "Aktualność danych": "czerwiec 2020"}}], "type": "FeatureCollection"}