{"features": [{"type": "Feature", "_id": "658", "geometry": {"type": "Point", "coordinates": [21.04203, 52.29615]}, "properties": {"NAZWA_SERWIS": "przystanek 03 (np. Żerań FSO)", "Typ": "Biletomat stacjonarny", "Lokalizacja": "Łojewska", "Opis": "przystanek 03 (np. Żerań FSO)", "Numer automatu": "M110", "Pochodzenie danych": "ZTM", "Aktualność danych": "czerwiec 2020"}}, {"type": "Feature", "_id": "704", "geometry": {"type": "Point", "coordinates": [21.06814, 52.17028]}, "properties": {"NAZWA_SERWIS": "przystanejk 04 (np.116 -> Tor Stegny)", "Typ": "Biletomat stacjonarny", "Lokalizacja": "Jana III Sobieskiego", "Opis": "przystanejk 04 (np.116 -> Tor Stegny)", "Numer automatu": "M156", "Pochodzenie danych": "ZTM", "Aktualność danych": "czerwiec 2020"}}, {"type": "Feature", "_id": "447", "geometry": {"type": "Point", "coordinates": [20.79861, 52.16806]}, "properties": {"NAZWA_SERWIS": "przejście podziemne, zejście na perony dworca", "Typ": "Biletomat stacjonarny", "Lokalizacja": "Sienkiewicza", "Opis": "przejście podziemne, zejście na perony dworca", "Numer automatu": "1105", "Pochodzenie danych": "ZTM", "Aktualność danych": "czerwiec 2020"}}, {"type": "Feature", "_id": "466", "geometry": {"type": "Point", "coordinates": [21.04915, 52.26988]}, "properties": {"NAZWA_SERWIS": "przystanek 01 (np. 160, 517 --> DKS Targówek)", "Typ": "Biletomat stacjonarny", "Lokalizacja": "M. Ossowskiego", "Opis": "przystanek 01 (np. 160, 517 --> DKS Targówek)", "Numer automatu": "T002", "Pochodzenie danych": "ZTM", "Aktualność danych": "czerwiec 2020"}}, {"type": "Feature", "_id": "565", "geometry": {"type": "Point", "coordinates": [20.92662, 52.26309]}, "properties": {"NAZWA_SERWIS": "przystanek 02 (112, 184 kierunek Jelonki)", "Typ": "Biletomat stacjonarny", "Lokalizacja": "Powstańców Śląskich", "Opis": "przystanek 02 (112, 184 kierunek Jelonki)", "Numer automatu": "T100", "Pochodzenie danych": "ZTM", "Aktualność danych": "czerwiec 2020"}}, {"type": "Feature", "_id": "352", "geometry": {"type": "Point", "coordinates": [21.05214, 52.14613]}, "properties": {"NAZWA_SERWIS": "Przy ekspedycji", "Typ": "Biletomat stacjonarny", "Lokalizacja": "F. Płaskowickiej", "Opis": "Przy ekspedycji", "Numer automatu": "1003", "Pochodzenie danych": "ZTM", "Aktualność danych": "czerwiec 2020"}}, {"type": "Feature", "_id": "698", "geometry": {"type": "Point", "coordinates": [21.03278, 52.29362]}, "properties": {"NAZWA_SERWIS": "przystanek 112 (np.CH Marki )", "Typ": "Biletomat stacjonarny", "Lokalizacja": "Łabiszyńska", "Opis": "przystanek 112 (np.CH Marki )", "Numer automatu": "M150", "Pochodzenie danych": "ZTM", "Aktualność danych": "czerwiec 2020"}}, {"type": "Feature", "_id": "278", "geometry": {"type": "Point", "coordinates": [21.11675, 52.27855]}, "properties": {"NAZWA_SERWIS": "Przystanek Powstańców, rejon Kauflandu", "Typ": "Biletomat stacjonarny", "Lokalizacja": "Powstańców", "Opis": "Przystanek Powstańców, rejon Kauflandu", "Numer automatu": "366", "Pochodzenie danych": "ZTM", "Aktualność danych": "czerwiec 2020"}}, {"type": "Feature", "_id": "10", "geometry": {"type": "Point", "coordinates": [21.00554, 52.21706]}, "properties": {"NAZWA_SERWIS": "przejście podziemne – w okolicy zejścia na przystanek GUS 05 ", "Typ": "Biletomat stacjonarny", "Lokalizacja": "al. Niepodległości", "Opis": "przejście podziemne – w okolicy zejścia na przystanek GUS 05 ", "Numer automatu": "10", "Pochodzenie danych": "ZTM", "Aktualność danych": "czerwiec 2020"}}, {"type": "Feature", "_id": "51", "geometry": {"type": "Point", "coordinates": [21.17936, 52.41611]}, "properties": {"NAZWA_SERWIS": "przystanek 02 (np.738-> Os. Victoria) ", "Typ": "Biletomat stacjonarny", "Lokalizacja": "Al. Jana Pawła II", "Opis": "przystanek 02 (np.738-> Os. Victoria) ", "Numer automatu": "51", "Pochodzenie danych": "ZTM", "Aktualność danych": "czerwiec 2020"}}, {"type": "Feature", "_id": "52", "geometry": {"type": "Point", "coordinates": [20.92847, 52.38776]}, "properties": {"NAZWA_SERWIS": "przystanek 01 (np. 517--> Dw. Zachodni)", "Typ": "Biletomat stacjonarny", "Lokalizacja": "Warszawska", "Opis": "przystanek 01 (np. 517--> Dw. Zachodni)", "Numer automatu": "52", "Pochodzenie danych": "ZTM", "Aktualność danych": "czerwiec 2020"}}, {"type": "Feature", "_id": "56", "geometry": {"type": "Point", "coordinates": [21.02602, 52.077]}, "properties": {"NAZWA_SERWIS": "przystanek 01 (np. 710-> Metro Wilanowska)", "Typ": "Biletomat stacjonarny", "Lokalizacja": "Wrocławska", "Opis": "przystanek 01 (np. 710-> Metro Wilanowska)", "Numer automatu": "56", "Pochodzenie danych": "ZTM", "Aktualność danych": "czerwiec 2020"}}, {"type": "Feature", "_id": "57", "geometry": {"type": "Point", "coordinates": [21.0272, 52.0732]}, "properties": {"NAZWA_SERWIS": "przystanek 01 (np. Głosków Szkoła)", "Typ": "Biletomat stacjonarny", "Lokalizacja": "Św. Wincentego", "Opis": "przystanek 01 (np. Głosków Szkoła)", "Numer automatu": "57", "Pochodzenie danych": "ZTM", "Aktualność danych": "czerwiec 2020"}}, {"type": "Feature", "_id": "175", "geometry": {"type": "Point", "coordinates": [21.02153, 52.21081]}, "properties": {"NAZWA_SERWIS": "przystanek 07 (np. 131 -> Sadyba)", "Typ": "Biletomat stacjonarny", "Lokalizacja": "pl. Unii Lubelskiej", "Opis": "przystanek 07 (np. 131 -> Sadyba)", "Numer automatu": "220", "Pochodzenie danych": "ZTM", "Aktualność danych": "czerwiec 2020"}}, {"type": "Feature", "_id": "841", "geometry": {"type": "Point", "coordinates": [20.99525, 52.22731]}, "properties": {"NAZWA_SERWIS": "ul. Żelazna / Al. Solidarności  Warszawa 00-894", "Typ": "Biletomat stacjonarny", "Lokalizacja": "Żelazna", "Opis": "ul. Żelazna / Al. Solidarności  Warszawa 00-894", "Numer automatu": "361", "Pochodzenie danych": "ZTM", "Aktualność danych": "czerwiec 2020"}}, {"type": "Feature", "_id": "36", "geometry": {"type": "Point", "coordinates": [20.95905, 52.22788]}, "properties": {"NAZWA_SERWIS": "przystanek 51 (np. 105 --> Metro Rondo Daszyńskiego)", "Typ": "Biletomat stacjonarny", "Lokalizacja": "M. Kasprzaka", "Opis": "przystanek 51 (np. 105 --> Metro Rondo Daszyńskiego)", "Numer automatu": "36", "Pochodzenie danych": "ZTM", "Aktualność danych": "czerwiec 2020"}}, {"type": "Feature", "_id": "173", "geometry": {"type": "Point", "coordinates": [21.03455, 52.20297]}, "properties": {"NAZWA_SERWIS": "przystanek 02 (np. 501, 519 kierunek Centrum)", "Typ": "Biletomat stacjonarny", "Lokalizacja": "Belwederska", "Opis": "przystanek 02 (np. 501, 519 kierunek Centrum)", "Numer automatu": "218", "Pochodzenie danych": "ZTM", "Aktualność danych": "czerwiec 2020"}}, {"type": "Feature", "_id": "715", "geometry": {"type": "Point", "coordinates": [21.08147, 52.23589]}, "properties": {"NAZWA_SERWIS": "przystanek 03 (np. 520 -> Centrum ", "Typ": "Biletomat stacjonarny", "Lokalizacja": "Ostrobramska", "Opis": "przystanek 03 (np. 520 -> Centrum ", "Numer automatu": "M166", "Pochodzenie danych": "ZTM", "Aktualność danych": "czerwiec 2020"}}, {"type": "Feature", "_id": "333", "geometry": {"type": "Point", "coordinates": [20.99074, 52.23431]}, "properties": {"NAZWA_SERWIS": "Przed siedzibą ZTM ", "Typ": "Biletomat stacjonarny", "Lokalizacja": "Żelazna", "Opis": "Przed siedzibą ZTM ", "Numer automatu": "469", "Pochodzenie danych": "ZTM", "Aktualność danych": "czerwiec 2020"}}, {"type": "Feature", "_id": "334", "geometry": {"type": "Point", "coordinates": [20.99079, 52.2342]}, "properties": {"NAZWA_SERWIS": "Przed siedzibą ZTM ", "Typ": "Biletomat stacjonarny", "Lokalizacja": "Żelazna", "Opis": "Przed siedzibą ZTM ", "Numer automatu": "470", "Pochodzenie danych": "ZTM", "Aktualność danych": "czerwiec 2020"}}, {"type": "Feature", "_id": "351", "geometry": {"type": "Point", "coordinates": [20.92946, 52.39444]}, "properties": {"NAZWA_SERWIS": "przystanek 03 (np.. 731-> Żerań FSO)", "Typ": "Biletomat stacjonarny", "Lokalizacja": "Rondo Piłsudskiego", "Opis": "przystanek 03 (np.. 731-> Żerań FSO)", "Numer automatu": "1002", "Pochodzenie danych": "ZTM", "Aktualność danych": "czerwiec 2020"}}, {"type": "Feature", "_id": "353", "geometry": {"type": "Point", "coordinates": [21.10924, 52.326]}, "properties": {"NAZWA_SERWIS": "ul. Sportowa teren parkingu", "Typ": "Biletomat stacjonarny", "Lokalizacja": "Sportowa", "Opis": "ul. Sportowa teren parkingu", "Numer automatu": "1003", "Pochodzenie danych": "ZTM", "Aktualność danych": "czerwiec 2020"}}, {"type": "Feature", "_id": "371", "geometry": {"type": "Point", "coordinates": [21.13463, 52.35854]}, "properties": {"NAZWA_SERWIS": "W pasie zieleni Skweru im. Księcia Markiewicza niepodal przystanków Struga", "Typ": "Biletomat stacjonarny", "Lokalizacja": "Al. Piłsudskiego", "Opis": "W pasie zieleni Skweru im. Księcia Markiewicza niepodal przystanków Struga", "Numer automatu": "1025", "Pochodzenie danych": "ZTM", "Aktualność danych": "czerwiec 2020"}}, {"type": "Feature", "_id": "374", "geometry": {"type": "Point", "coordinates": [21.08586, 52.30534]}, "properties": {"NAZWA_SERWIS": "wej. główne od strony krańca \"CH Marki 01\"", "Typ": "Biletomat stacjonarny", "Lokalizacja": "Al. Piłsudskiego", "Opis": "wej. główne od strony krańca \"CH Marki 01\"", "Numer automatu": "1028", "Pochodzenie danych": "ZTM", "Aktualność danych": "czerwiec 2020"}}, {"type": "Feature", "_id": "391", "geometry": {"type": "Point", "coordinates": [20.8435, 52.25071]}, "properties": {"NAZWA_SERWIS": "przy budynku Urzędu", "Typ": "Biletomat stacjonarny", "Lokalizacja": "Rynek", "Opis": "przy budynku Urzędu", "Numer automatu": "1045", "Pochodzenie danych": "ZTM", "Aktualność danych": "czerwiec 2020"}}, {"type": "Feature", "_id": "396", "geometry": {"type": "Point", "coordinates": [20.91334, 52.41139]}, "properties": {"NAZWA_SERWIS": "peron", "Typ": "Biletomat stacjonarny", "Lokalizacja": "Kolejowa", "Opis": "peron", "Numer automatu": "1050", "Pochodzenie danych": "ZTM", "Aktualność danych": "czerwiec 2020"}}, {"type": "Feature", "_id": "407", "geometry": {"type": "Point", "coordinates": [21.14945, 52.22352]}, "properties": {"NAZWA_SERWIS": "peron", "Typ": "Biletomat stacjonarny", "Lokalizacja": "Widoczna", "Opis": "peron", "Numer automatu": "1062", "Pochodzenie danych": "ZTM", "Aktualność danych": "czerwiec 2020"}}, {"type": "Feature", "_id": "587", "geometry": {"type": "Point", "coordinates": [21.23571, 52.34511]}, "properties": {"NAZWA_SERWIS": "UL. Warszawska 5A, obok Urzędu pracy", "Typ": "Biletomat stacjonarny", "Lokalizacja": "Warszawska", "Opis": "UL. Warszawska 5A, obok Urzędu pracy", "Numer automatu": "M020", "Pochodzenie danych": "ZTM", "Aktualność danych": "czerwiec 2020"}}, {"type": "Feature", "_id": "654", "geometry": {"type": "Point", "coordinates": [21.0356, 52.4212]}, "properties": {"NAZWA_SERWIS": "przy budynku Urzędu", "Typ": "Biletomat stacjonarny", "Lokalizacja": "Jana Kazimierza", "Opis": "przy budynku Urzędu", "Numer automatu": "M106", "Pochodzenie danych": "ZTM", "Aktualność danych": "czerwiec 2020"}}, {"type": "Feature", "_id": "655", "geometry": {"type": "Point", "coordinates": [21.03007, 52.20703]}, "properties": {"NAZWA_SERWIS": "przystanek 04 (np.131 -> Metro Politechnika", "Typ": "Biletomat stacjonarny", "Lokalizacja": "Spacerowa", "Opis": "przystanek 04 (np.131 -> Metro Politechnika", "Numer automatu": "M107", "Pochodzenie danych": "ZTM", "Aktualność danych": "czerwiec 2020"}}, {"type": "Feature", "_id": "661", "geometry": {"type": "Point", "coordinates": [21.10764, 52.2415]}, "properties": {"NAZWA_SERWIS": "przy przystanku 03 (np.. 9 -. Rondo Wiatraczna ", "Typ": "Biletomat stacjonarny", "Lokalizacja": "Grochowska", "Opis": "przy przystanku 03 (np.. 9 -. Rondo Wiatraczna ", "Numer automatu": "M113", "Pochodzenie danych": "ZTM", "Aktualność danych": "czerwiec 2020"}}, {"type": "Feature", "_id": "662", "geometry": {"type": "Point", "coordinates": [21.14025, 52.22863]}, "properties": {"NAZWA_SERWIS": "przystanek 01 (np.502 -> Metro Politechnika)", "Typ": "Biletomat stacjonarny", "Lokalizacja": "Płowiecka", "Opis": "przystanek 01 (np.502 -> Metro Politechnika)", "Numer automatu": "M114", "Pochodzenie danych": "ZTM", "Aktualność danych": "czerwiec 2020"}}, {"type": "Feature", "_id": "675", "geometry": {"type": "Point", "coordinates": [21.20489, 52.1596]}, "properties": {"NAZWA_SERWIS": "przystanek 03 (np. 524-> Szczęśliwice) ", "Typ": "Biletomat stacjonarny", "Lokalizacja": "Bysławska", "Opis": "przystanek 03 (np. 524-> Szczęśliwice) ", "Numer automatu": "M127", "Pochodzenie danych": "ZTM", "Aktualność danych": "czerwiec 2020"}}, {"type": "Feature", "_id": "676", "geometry": {"type": "Point", "coordinates": [20.92424, 52.28092]}, "properties": {"NAZWA_SERWIS": "przystanek 06 (np. 114 -> Metro Młociny)", "Typ": "Biletomat stacjonarny", "Lokalizacja": "J. Conrada", "Opis": "przystanek 06 (np. 114 -> Metro Młociny)", "Numer automatu": "M128", "Pochodzenie danych": "ZTM", "Aktualność danych": "czerwiec 2020"}}, {"type": "Feature", "_id": "679", "geometry": {"type": "Point", "coordinates": [20.98632, 52.2683]}, "properties": {"NAZWA_SERWIS": "przystanek 07 (np. 116 -> Dworzec Gdański", "Typ": "Biletomat stacjonarny", "Lokalizacja": "pl. T. W. Wilsona", "Opis": "przystanek 07 (np. 116 -> Dworzec Gdański", "Numer automatu": "M131", "Pochodzenie danych": "ZTM", "Aktualność danych": "czerwiec 2020"}}, {"type": "Feature", "_id": "682", "geometry": {"type": "Point", "coordinates": [21.06013, 52.31512]}, "properties": {"NAZWA_SERWIS": "kraniec", "Typ": "Biletomat stacjonarny", "Lokalizacja": "Skarbka z Gór", "Opis": "kraniec", "Numer automatu": "M134", "Pochodzenie danych": "ZTM", "Aktualność danych": "czerwiec 2020"}}, {"type": "Feature", "_id": "683", "geometry": {"type": "Point", "coordinates": [20.95187, 52.31885]}, "properties": {"NAZWA_SERWIS": "przystanek 05 -> Metro Młociny ", "Typ": "Biletomat stacjonarny", "Lokalizacja": "Światowida", "Opis": "przystanek 05 -> Metro Młociny ", "Numer automatu": "M135", "Pochodzenie danych": "ZTM", "Aktualność danych": "czerwiec 2020"}}, {"type": "Feature", "_id": "684", "geometry": {"type": "Point", "coordinates": [20.97789, 52.23941]}, "properties": {"NAZWA_SERWIS": "przystanek 02 (np. 1-> Rondo Radosława)", "Typ": "Biletomat stacjonarny", "Lokalizacja": "Okopowa", "Opis": "przystanek 02 (np. 1-> Rondo Radosława)", "Numer automatu": "M136", "Pochodzenie danych": "ZTM", "Aktualność danych": "czerwiec 2020"}}, {"type": "Feature", "_id": "689", "geometry": {"type": "Point", "coordinates": [20.93318, 52.28876]}, "properties": {"NAZWA_SERWIS": "okolice przystanku Sokratesa 01, narożnik ulic, po stronie Lidla", "Typ": "Biletomat stacjonarny", "Lokalizacja": "J. Kasprowicza", "Opis": "okolice przystanku Sokratesa 01, narożnik ulic, po stronie Lidla", "Numer automatu": "M141", "Pochodzenie danych": "ZTM", "Aktualność danych": "czerwiec 2020"}}, {"type": "Feature", "_id": "690", "geometry": {"type": "Point", "coordinates": [20.92955, 52.22363]}, "properties": {"NAZWA_SERWIS": "narożnik ulic w okolicy przystanków tramwajowych ", "Typ": "Biletomat stacjonarny", "Lokalizacja": "Fort Wola", "Opis": "narożnik ulic w okolicy przystanków tramwajowych ", "Numer automatu": "M142", "Pochodzenie danych": "ZTM", "Aktualność danych": "czerwiec 2020"}}, {"type": "Feature", "_id": "691", "geometry": {"type": "Point", "coordinates": [20.98761, 52.25627]}, "properties": {"NAZWA_SERWIS": "przystanek 01 (np. 500 -> Dworzec Gdański)", "Typ": "Biletomat stacjonarny", "Lokalizacja": "J. Słowackiego", "Opis": "przystanek 01 (np. 500 -> Dworzec Gdański)", "Numer automatu": "M143", "Pochodzenie danych": "ZTM", "Aktualność danych": "czerwiec 2020"}}, {"type": "Feature", "_id": "693", "geometry": {"type": "Point", "coordinates": [20.95844, 52.28066]}, "properties": {"NAZWA_SERWIS": "u zbieu ul. Marymonckiej i Podczaszyńskiego - przy przystanku Podleśna 1 dla BIS Ł kierunek Metro Marymont ", "Typ": "Biletomat stacjonarny", "Lokalizacja": "Podleśna", "Opis": "u zbieu ul. Marymonckiej i Podczaszyńskiego - przy przystanku Podleśna 1 dla BIS Ł kierunek Metro Marymont ", "Numer automatu": "M145", "Pochodzenie danych": "ZTM", "Aktualność danych": "czerwiec 2020"}}, {"type": "Feature", "_id": "694", "geometry": {"type": "Point", "coordinates": [21.02321, 52.20555]}, "properties": {"NAZWA_SERWIS": "przystanek 02 (np. 138, kierunek Dworkowa)", "Typ": "Biletomat stacjonarny", "Lokalizacja": "Puławska", "Opis": "przystanek 02 (np. 138, kierunek Dworkowa)", "Numer automatu": "M146", "Pochodzenie danych": "ZTM", "Aktualność danych": "czerwiec 2020"}}, {"type": "Feature", "_id": "695", "geometry": {"type": "Point", "coordinates": [21.02492, 52.18611]}, "properties": {"NAZWA_SERWIS": "przy przejściu prowadzącym do przystanku tramwajowego w kierunku Centrum. ", "Typ": "Biletomat stacjonarny", "Lokalizacja": "Puławska", "Opis": "przy przejściu prowadzącym do przystanku tramwajowego w kierunku Centrum. ", "Numer automatu": "M147", "Pochodzenie danych": "ZTM", "Aktualność danych": "czerwiec 2020"}}, {"type": "Feature", "_id": "699", "geometry": {"type": "Point", "coordinates": [20.96235, 52.26672]}, "properties": {"NAZWA_SERWIS": "narożnik ulic Broniewskiego i Elbląśkiej", "Typ": "Biletomat stacjonarny", "Lokalizacja": "W. Broniewskiego", "Opis": "narożnik ulic Broniewskiego i Elbląśkiej", "Numer automatu": "M151", "Pochodzenie danych": "ZTM", "Aktualność danych": "czerwiec 2020"}}, {"type": "Feature", "_id": "701", "geometry": {"type": "Point", "coordinates": [20.94047, 52.32714]}, "properties": {"NAZWA_SERWIS": "przystanek 01 (np.186 -> Białołęka Ratusz)", "Typ": "Biletomat stacjonarny", "Lokalizacja": "Światowida", "Opis": "przystanek 01 (np.186 -> Białołęka Ratusz)", "Numer automatu": "M153", "Pochodzenie danych": "ZTM", "Aktualność danych": "czerwiec 2020"}}, {"type": "Feature", "_id": "703", "geometry": {"type": "Point", "coordinates": [20.91528, 52.23172]}, "properties": {"NAZWA_SERWIS": "przystanek 02 ( np. 112 -> Bemowo Ratusz)", "Typ": "Biletomat stacjonarny", "Lokalizacja": "Powstańców Śląskich", "Opis": "przystanek 02 ( np. 112 -> Bemowo Ratusz)", "Numer automatu": "M155", "Pochodzenie danych": "ZTM", "Aktualność danych": "czerwiec 2020"}}, {"type": "Feature", "_id": "705", "geometry": {"type": "Point", "coordinates": [21.06814, 52.17028]}, "properties": {"NAZWA_SERWIS": "przystanejk 04 (np.116 -> Tor Stegny)", "Typ": "Biletomat stacjonarny", "Lokalizacja": "Jana III Sobieskiego", "Opis": "przystanejk 04 (np.116 -> Tor Stegny)", "Numer automatu": "M156", "Pochodzenie danych": "ZTM", "Aktualność danych": "czerwiec 2020"}}, {"type": "Feature", "_id": "706", "geometry": {"type": "Point", "coordinates": [20.9957, 52.2262]}, "properties": {"NAZWA_SERWIS": "naprzeciwko UM Plac Starynkiewicza 7/9", "Typ": "Biletomat stacjonarny", "Lokalizacja": "pl. S. Starynkiewicza", "Opis": "naprzeciwko UM Plac Starynkiewicza 7/9", "Numer automatu": "M157", "Pochodzenie danych": "ZTM", "Aktualność danych": "czerwiec 2020"}}, {"type": "Feature", "_id": "707", "geometry": {"type": "Point", "coordinates": [20.89028, 52.25034]}, "properties": {"NAZWA_SERWIS": "przystanek 01", "Typ": "Biletomat stacjonarny", "Lokalizacja": "Kocjana", "Opis": "przystanek 01", "Numer automatu": "M158", "Pochodzenie danych": "ZTM", "Aktualność danych": "czerwiec 2020"}}, {"type": "Feature", "_id": "709", "geometry": {"type": "Point", "coordinates": [20.91664, 52.22546]}, "properties": {"NAZWA_SERWIS": "przystanek 02 (np. 184-> Bemowo Ratusz)", "Typ": "Biletomat stacjonarny", "Lokalizacja": "Powstańców Śląskich", "Opis": "przystanek 02 (np. 184-> Bemowo Ratusz)", "Numer automatu": "M160", "Pochodzenie danych": "ZTM", "Aktualność danych": "czerwiec 2020"}}, {"type": "Feature", "_id": "710", "geometry": {"type": "Point", "coordinates": [20.98515, 52.25119]}, "properties": {"NAZWA_SERWIS": "Narożnik ulic Jana Pawła II i Stawki ", "Typ": "Biletomat stacjonarny", "Lokalizacja": "al. Jana Pawła II", "Opis": "Narożnik ulic Jana Pawła II i Stawki ", "Numer automatu": "M161", "Pochodzenie danych": "ZTM", "Aktualność danych": "czerwiec 2020"}}, {"type": "Feature", "_id": "727", "geometry": {"type": "Point", "coordinates": [21.01367, 52.24548]}, "properties": {"NAZWA_SERWIS": "przystanek 01 (np. 116 -> Foksal)", "Typ": "Biletomat stacjonarny", "Lokalizacja": "pl. Zamkowy", "Opis": "przystanek 01 (np. 116 -> Foksal)", "Numer automatu": "M178", "Pochodzenie danych": "ZTM", "Aktualność danych": "czerwiec 2020"}}, {"type": "Feature", "_id": "431", "geometry": {"type": "Point", "coordinates": [21.11919, 52.33807]}, "properties": {"NAZWA_SERWIS": "ul. Duża teren parkingu", "Typ": "Biletomat stacjonarny", "Lokalizacja": "Duża", "Opis": "ul. Duża teren parkingu", "Numer automatu": "1088", "Pochodzenie danych": "ZTM", "Aktualność danych": "czerwiec 2020"}}, {"type": "Feature", "_id": "435", "geometry": {"type": "Point", "coordinates": [20.91797, 52.37764]}, "properties": {"NAZWA_SERWIS": "okolice budynku urzędu od strony ul. Modlińskiej", "Typ": "Biletomat stacjonarny", "Lokalizacja": "Modlińska", "Opis": "okolice budynku urzędu od strony ul. Modlińskiej", "Numer automatu": "1092", "Pochodzenie danych": "ZTM", "Aktualność danych": "czerwiec 2020"}}, {"type": "Feature", "_id": "442", "geometry": {"type": "Point", "coordinates": [21.10771, 52.3266]}, "properties": {"NAZWA_SERWIS": "przy UM", "Typ": "Biletomat stacjonarny", "Lokalizacja": "Al. Piłsudskiego", "Opis": "przy UM", "Numer automatu": "1099", "Pochodzenie danych": "ZTM", "Aktualność danych": "czerwiec 2020"}}, {"type": "Feature", "_id": "445", "geometry": {"type": "Point", "coordinates": [20.93772, 52.3363]}, "properties": {"NAZWA_SERWIS": "przystanek 02 - przy ul.Odkrytej 62 SIMPLYMERKET", "Typ": "Biletomat stacjonarny", "Lokalizacja": "Odkryta", "Opis": "przystanek 02 - przy ul.Odkrytej 62 SIMPLYMERKET", "Numer automatu": "1103", "Pochodzenie danych": "ZTM", "Aktualność danych": "czerwiec 2020"}}, {"type": "Feature", "_id": "448", "geometry": {"type": "Point", "coordinates": [21.29765, 52.24128]}, "properties": {"NAZWA_SERWIS": "przed wejściem do budynku stacji ", "Typ": "Biletomat stacjonarny", "Lokalizacja": "Bema", "Opis": "przed wejściem do budynku stacji ", "Numer automatu": "1106", "Pochodzenie danych": "ZTM", "Aktualność danych": "czerwiec 2020"}}, {"type": "Feature", "_id": "449", "geometry": {"type": "Point", "coordinates": [21.11709, 52.09571]}, "properties": {"NAZWA_SERWIS": "przy budynku Urzędu", "Typ": "Biletomat stacjonarny", "Lokalizacja": "Warszawska", "Opis": "przy budynku Urzędu", "Numer automatu": "1107", "Pochodzenie danych": "ZTM", "Aktualność danych": "czerwiec 2020"}}, {"type": "Feature", "_id": "458", "geometry": {"type": "Point", "coordinates": [20.90454, 52.1813]}, "properties": {"NAZWA_SERWIS": "Na peronie ", "Typ": "Biletomat stacjonarny", "Lokalizacja": "Centralna", "Opis": "Na peronie ", "Numer automatu": "1192", "Pochodzenie danych": "ZTM", "Aktualność danych": "czerwiec 2020"}}, {"type": "Feature", "_id": "479", "geometry": {"type": "Point", "coordinates": [20.95829, 52.31332]}, "properties": {"NAZWA_SERWIS": "przystanek 01 (np. 510 --> Dw. Centralny)", "Typ": "Biletomat stacjonarny", "Lokalizacja": "Porajów", "Opis": "przystanek 01 (np. 510 --> Dw. Centralny)", "Numer automatu": "T015", "Pochodzenie danych": "ZTM", "Aktualność danych": "czerwiec 2020"}}, {"type": "Feature", "_id": "499", "geometry": {"type": "Point", "coordinates": [21.02636, 52.23315]}, "properties": {"NAZWA_SERWIS": "przy kasach", "Typ": "Biletomat stacjonarny", "Lokalizacja": "Al. Jerozolimskie", "Opis": "przy kasach", "Numer automatu": "T035", "Pochodzenie danych": "ZTM", "Aktualność danych": "czerwiec 2020"}}, {"type": "Feature", "_id": "501", "geometry": {"type": "Point", "coordinates": [21.00354, 52.17784]}, "properties": {"NAZWA_SERWIS": "przystanek 01", "Typ": "Biletomat stacjonarny", "Lokalizacja": "al. Wilanowska", "Opis": "przystanek 01", "Numer automatu": "T037", "Pochodzenie danych": "ZTM", "Aktualność danych": "czerwiec 2020"}}, {"type": "Feature", "_id": "503", "geometry": {"type": "Point", "coordinates": [20.97143, 52.20606]}, "properties": {"NAZWA_SERWIS": "przystanek 05 (np. 512 --> Szczęśliwice)", "Typ": "Biletomat stacjonarny", "Lokalizacja": "K. Dickensa", "Opis": "przystanek 05 (np. 512 --> Szczęśliwice)", "Numer automatu": "T039", "Pochodzenie danych": "ZTM", "Aktualność danych": "czerwiec 2020"}}, {"type": "Feature", "_id": "507", "geometry": {"type": "Point", "coordinates": [21.04227, 52.29609]}, "properties": {"NAZWA_SERWIS": "Łojewska/Chodecka", "Typ": "Biletomat stacjonarny", "Lokalizacja": "Łojewska", "Opis": "Łojewska/Chodecka", "Numer automatu": "T042", "Pochodzenie danych": "ZTM", "Aktualność danych": "czerwiec 2020"}}, {"type": "Feature", "_id": "513", "geometry": {"type": "Point", "coordinates": [21.18727, 52.24691]}, "properties": {"NAZWA_SERWIS": "przystanek 01 (np 115 -> Marysin ", "Typ": "Biletomat stacjonarny", "Lokalizacja": "Wspólna", "Opis": "przystanek 01 (np 115 -> Marysin ", "Numer automatu": "T048", "Pochodzenie danych": "ZTM", "Aktualność danych": "czerwiec 2020"}}, {"type": "Feature", "_id": "514", "geometry": {"type": "Point", "coordinates": [20.94186, 52.22661]}, "properties": {"NAZWA_SERWIS": "przystanek 06 (np. 26 --> Wiatraczna )", "Typ": "Biletomat stacjonarny", "Lokalizacja": "Redutowa", "Opis": "przystanek 06 (np. 26 --> Wiatraczna )", "Numer automatu": "T049", "Pochodzenie danych": "ZTM", "Aktualność danych": "czerwiec 2020"}}, {"type": "Feature", "_id": "516", "geometry": {"type": "Point", "coordinates": [21.08814, 52.23626]}, "properties": {"NAZWA_SERWIS": "przystanek 01 (502, 514, 525 --> Dw. Centralny)", "Typ": "Biletomat stacjonarny", "Lokalizacja": "Ostrobramska", "Opis": "przystanek 01 (502, 514, 525 --> Dw. Centralny)", "Numer automatu": "T051", "Pochodzenie danych": "ZTM", "Aktualność danych": "czerwiec 2020"}}, {"type": "Feature", "_id": "519", "geometry": {"type": "Point", "coordinates": [20.9201, 52.24934]}, "properties": {"NAZWA_SERWIS": "przystanek 02 (np. 171 kierunek Centrum)", "Typ": "Biletomat stacjonarny", "Lokalizacja": "Radiowa", "Opis": "przystanek 02 (np. 171 kierunek Centrum)", "Numer automatu": "T054", "Pochodzenie danych": "ZTM", "Aktualność danych": "czerwiec 2020"}}, {"type": "Feature", "_id": "520", "geometry": {"type": "Point", "coordinates": [20.94229, 52.22701]}, "properties": {"NAZWA_SERWIS": "przystanek 07 (154, 159 --> Redutowa)", "Typ": "Biletomat stacjonarny", "Lokalizacja": "Redutowa", "Opis": "przystanek 07 (154, 159 --> Redutowa)", "Numer automatu": "T055", "Pochodzenie danych": "ZTM", "Aktualność danych": "czerwiec 2020"}}, {"type": "Feature", "_id": "521", "geometry": {"type": "Point", "coordinates": [20.92084, 52.25656]}, "properties": {"NAZWA_SERWIS": "przystanek 04 (np. 171 kierunek Centrum)", "Typ": "Biletomat stacjonarny", "Lokalizacja": "Wrocławska", "Opis": "przystanek 04 (np. 171 kierunek Centrum)", "Numer automatu": "T056", "Pochodzenie danych": "ZTM", "Aktualność danych": "czerwiec 2020"}}, {"type": "Feature", "_id": "522", "geometry": {"type": "Point", "coordinates": [21.04272, 52.27314]}, "properties": {"NAZWA_SERWIS": "przystanek 01 (kierunek Centrum)", "Typ": "Biletomat stacjonarny", "Lokalizacja": "Św. Wincentego", "Opis": "przystanek 01 (kierunek Centrum)", "Numer automatu": "T057", "Pochodzenie danych": "ZTM", "Aktualność danych": "czerwiec 2020"}}, {"type": "Feature", "_id": "525", "geometry": {"type": "Point", "coordinates": [21.03443, 52.2584]}, "properties": {"NAZWA_SERWIS": "przystanek 01 (np. 169 --> Dw. Wschodni)", "Typ": "Biletomat stacjonarny", "Lokalizacja": "Inżynierska", "Opis": "przystanek 01 (np. 169 --> Dw. Wschodni)", "Numer automatu": "T060", "Pochodzenie danych": "ZTM", "Aktualność danych": "czerwiec 2020"}}, {"type": "Feature", "_id": "529", "geometry": {"type": "Point", "coordinates": [21.06091, 52.23251]}, "properties": {"NAZWA_SERWIS": "skrzyżowanie ulic Saska/Zwycięzców", "Typ": "Biletomat stacjonarny", "Lokalizacja": "Saska", "Opis": "skrzyżowanie ulic Saska/Zwycięzców", "Numer automatu": "T064", "Pochodzenie danych": "ZTM", "Aktualność danych": "czerwiec 2020"}}, {"type": "Feature", "_id": "531", "geometry": {"type": "Point", "coordinates": [21.05265, 52.27644]}, "properties": {"NAZWA_SERWIS": "pętla", "Typ": "Biletomat stacjonarny", "Lokalizacja": "Trocka", "Opis": "pętla", "Numer automatu": "T066", "Pochodzenie danych": "ZTM", "Aktualność danych": "czerwiec 2020"}}, {"type": "Feature", "_id": "533", "geometry": {"type": "Point", "coordinates": [20.9399, 52.24656]}, "properties": {"NAZWA_SERWIS": "przystanek 05 (167 --> Ciołka)", "Typ": "Biletomat stacjonarny", "Lokalizacja": "Obozowa", "Opis": "przystanek 05 (167 --> Ciołka)", "Numer automatu": "T068", "Pochodzenie danych": "ZTM", "Aktualność danych": "czerwiec 2020"}}, {"type": "Feature", "_id": "535", "geometry": {"type": "Point", "coordinates": [21.02145, 52.21411]}, "properties": {"NAZWA_SERWIS": "Przystanek Plac Unii Lubelskiej", "Typ": "Biletomat stacjonarny", "Lokalizacja": "pl. Unii Lubelskiej", "Opis": "Przystanek Plac Unii Lubelskiej", "Numer automatu": "T070", "Pochodzenie danych": "ZTM", "Aktualność danych": "czerwiec 2020"}}, {"type": "Feature", "_id": "541", "geometry": {"type": "Point", "coordinates": [21.0232, 52.23207]}, "properties": {"NAZWA_SERWIS": "przystanek 01 (np. 117, 507 --> Gocław)", "Typ": "Biletomat stacjonarny", "Lokalizacja": "Al. Jerozolimskie", "Opis": "przystanek 01 (np. 117, 507 --> Gocław)", "Numer automatu": "T076", "Pochodzenie danych": "ZTM", "Aktualność danych": "czerwiec 2020"}}, {"type": "Feature", "_id": "542", "geometry": {"type": "Point", "coordinates": [20.94796, 52.27683]}, "properties": {"NAZWA_SERWIS": "naprzeciwko UD", "Typ": "Biletomat stacjonarny", "Lokalizacja": "S. Żeromskiego", "Opis": "naprzeciwko UD", "Numer automatu": "T077", "Pochodzenie danych": "ZTM", "Aktualność danych": "czerwiec 2020"}}, {"type": "Feature", "_id": "545", "geometry": {"type": "Point", "coordinates": [21.02691, 52.25966]}, "properties": {"NAZWA_SERWIS": "pętla, przy ekspedycji", "Typ": "Biletomat stacjonarny", "Lokalizacja": "W. Skoczylasa", "Opis": "pętla, przy ekspedycji", "Numer automatu": "T080", "Pochodzenie danych": "ZTM", "Aktualność danych": "czerwiec 2020"}}, {"type": "Feature", "_id": "547", "geometry": {"type": "Point", "coordinates": [21.0993, 52.2348]}, "properties": {"NAZWA_SERWIS": "przystanek 01 (np. 525 --> Emilii Plater)", "Typ": "Biletomat stacjonarny", "Lokalizacja": "Ostrobramska", "Opis": "przystanek 01 (np. 525 --> Emilii Plater)", "Numer automatu": "T082", "Pochodzenie danych": "ZTM", "Aktualność danych": "czerwiec 2020"}}, {"type": "Feature", "_id": "548", "geometry": {"type": "Point", "coordinates": [21.02223, 52.23228]}, "properties": {"NAZWA_SERWIS": "przystanek 02 (np. 117, 507 kierunek Centrum)", "Typ": "Biletomat stacjonarny", "Lokalizacja": "Al. Jerozolimskie", "Opis": "przystanek 02 (np. 117, 507 kierunek Centrum)", "Numer automatu": "T083", "Pochodzenie danych": "ZTM", "Aktualność danych": "czerwiec 2020"}}, {"type": "Feature", "_id": "550", "geometry": {"type": "Point", "coordinates": [20.98535, 52.24647]}, "properties": {"NAZWA_SERWIS": "przystanek 04", "Typ": "Biletomat stacjonarny", "Lokalizacja": "Smocza", "Opis": "przystanek 04", "Numer automatu": "T085", "Pochodzenie danych": "ZTM", "Aktualność danych": "czerwiec 2020"}}, {"type": "Feature", "_id": "551", "geometry": {"type": "Point", "coordinates": [21.03699, 52.2066]}, "properties": {"NAZWA_SERWIS": "przystanek 01 (np. 131 --> Sadyba)", "Typ": "Biletomat stacjonarny", "Lokalizacja": "J. Gagarina", "Opis": "przystanek 01 (np. 131 --> Sadyba)", "Numer automatu": "T086", "Pochodzenie danych": "ZTM", "Aktualność danych": "czerwiec 2020"}}, {"type": "Feature", "_id": "552", "geometry": {"type": "Point", "coordinates": [20.94474, 52.32212]}, "properties": {"NAZWA_SERWIS": "przystanek 01 (np. 508, 510 --> Metro Marymont)", "Typ": "Biletomat stacjonarny", "Lokalizacja": "Światowida", "Opis": "przystanek 01 (np. 508, 510 --> Metro Marymont)", "Numer automatu": "T087", "Pochodzenie danych": "ZTM", "Aktualność danych": "czerwiec 2020"}}, {"type": "Feature", "_id": "554", "geometry": {"type": "Point", "coordinates": [20.98569, 52.2047]}, "properties": {"NAZWA_SERWIS": "przystanek 01 (175, 188 --> Lotnisko Chopina)", "Typ": "Biletomat stacjonarny", "Lokalizacja": "Żwirki i Wigury", "Opis": "przystanek 01 (175, 188 --> Lotnisko Chopina)", "Numer automatu": "T089", "Pochodzenie danych": "ZTM", "Aktualność danych": "czerwiec 2020"}}, {"type": "Feature", "_id": "557", "geometry": {"type": "Point", "coordinates": [20.91473, 52.19954]}, "properties": {"NAZWA_SERWIS": "przystanek 03", "Typ": "Biletomat stacjonarny", "Lokalizacja": "Kleszczowa", "Opis": "przystanek 03", "Numer automatu": "T092", "Pochodzenie danych": "ZTM", "Aktualność danych": "czerwiec 2020"}}, {"type": "Feature", "_id": "558", "geometry": {"type": "Point", "coordinates": [21.0691, 52.1815]}, "properties": {"NAZWA_SERWIS": "pętla", "Typ": "Biletomat stacjonarny", "Lokalizacja": "Powsińska", "Opis": "pętla", "Numer automatu": "T093", "Pochodzenie danych": "ZTM", "Aktualność danych": "czerwiec 2020"}}, {"type": "Feature", "_id": "561", "geometry": {"type": "Point", "coordinates": [20.97532, 52.26608]}, "properties": {"NAZWA_SERWIS": "przystanek 06 (np. 114, 122 --> Sady Żoliborskie)", "Typ": "Biletomat stacjonarny", "Lokalizacja": "Z. Krasińskiego", "Opis": "przystanek 06 (np. 114, 122 --> Sady Żoliborskie)", "Numer automatu": "T096", "Pochodzenie danych": "ZTM", "Aktualność danych": "czerwiec 2020"}}, {"type": "Feature", "_id": "562", "geometry": {"type": "Point", "coordinates": [21.0498, 52.20378]}, "properties": {"NAZWA_SERWIS": "przystanek 02 (kierunek Centrum)", "Typ": "Biletomat stacjonarny", "Lokalizacja": "Czerniakowska", "Opis": "przystanek 02 (kierunek Centrum)", "Numer automatu": "T097", "Pochodzenie danych": "ZTM", "Aktualność danych": "czerwiec 2020"}}, {"type": "Feature", "_id": "566", "geometry": {"type": "Point", "coordinates": [20.92662, 52.26309]}, "properties": {"NAZWA_SERWIS": "przystanek 02 (112, 184 kierunek Jelonki)", "Typ": "Biletomat stacjonarny", "Lokalizacja": "Powstańców Śląskich", "Opis": "przystanek 02 (112, 184 kierunek Jelonki)", "Numer automatu": "T100", "Pochodzenie danych": "ZTM", "Aktualność danych": "czerwiec 2020"}}, {"type": "Feature", "_id": "567", "geometry": {"type": "Point", "coordinates": [20.98332, 52.19792]}, "properties": {"NAZWA_SERWIS": "przystanek 01 (np.175, 188 --> Lotnisko Chopina)", "Typ": "Biletomat stacjonarny", "Lokalizacja": "Żwirki i Wigury", "Opis": "przystanek 01 (np.175, 188 --> Lotnisko Chopina)", "Numer automatu": "T101", "Pochodzenie danych": "ZTM", "Aktualność danych": "czerwiec 2020"}}, {"type": "Feature", "_id": "577", "geometry": {"type": "Point", "coordinates": [20.65125, 52.44614]}, "properties": {"NAZWA_SERWIS": "Strefa ogólnodostępna ", "Typ": "Biletomat stacjonarny", "Lokalizacja": "Gen. Thommée", "Opis": "Strefa ogólnodostępna ", "Numer automatu": "M010", "Pochodzenie danych": "ZTM", "Aktualność danych": "czerwiec 2020"}}, {"type": "Feature", "_id": "578", "geometry": {"type": "Point", "coordinates": [20.65197, 52.44634]}, "properties": {"NAZWA_SERWIS": "Strefa strzeżona ", "Typ": "Biletomat stacjonarny", "Lokalizacja": "Gen. Thommée", "Opis": "Strefa strzeżona ", "Numer automatu": "M011", "Pochodzenie danych": "ZTM", "Aktualność danych": "czerwiec 2020"}}, {"type": "Feature", "_id": "713", "geometry": {"type": "Point", "coordinates": [21.17565, 52.20623]}, "properties": {"NAZWA_SERWIS": "przystanek 01 (np. 119 --> Czatów)", "Typ": "Biletomat stacjonarny", "Lokalizacja": "M. Pożaryskiego", "Opis": "przystanek 01 (np. 119 --> Czatów)", "Numer automatu": "M164", "Pochodzenie danych": "ZTM", "Aktualność danych": "czerwiec 2020"}}, {"type": "Feature", "_id": "717", "geometry": {"type": "Point", "coordinates": [20.92924, 52.23375]}, "properties": {"NAZWA_SERWIS": "przystanek 01 (np. 520 kier. Marysin)", "Typ": "Biletomat stacjonarny", "Lokalizacja": "Jana Olbrachta", "Opis": "przystanek 01 (np. 520 kier. Marysin)", "Numer automatu": "M168", "Pochodzenie danych": "ZTM", "Aktualność danych": "czerwiec 2020"}}, {"type": "Feature", "_id": "718", "geometry": {"type": "Point", "coordinates": [21.21429, 52.33703]}, "properties": {"NAZWA_SERWIS": "przy budynku Urzędu", "Typ": "Biletomat stacjonarny", "Lokalizacja": "Wołomińska", "Opis": "przy budynku Urzędu", "Numer automatu": "M169", "Pochodzenie danych": "ZTM", "Aktualność danych": "czerwiec 2020"}}, {"type": "Feature", "_id": "719", "geometry": {"type": "Point", "coordinates": [21.00226, 52.1829]}, "properties": {"NAZWA_SERWIS": "przystanek 04 (np. 18-> Metro Wierzbno)", "Typ": "Biletomat stacjonarny", "Lokalizacja": "Wołoska", "Opis": "przystanek 04 (np. 18-> Metro Wierzbno)", "Numer automatu": "M170", "Pochodzenie danych": "ZTM", "Aktualność danych": "czerwiec 2020"}}, {"type": "Feature", "_id": "723", "geometry": {"type": "Point", "coordinates": [21.05633, 52.32445]}, "properties": {"NAZWA_SERWIS": "przystanek 02 (np. 132 --> Marymont)", "Typ": "Biletomat stacjonarny", "Lokalizacja": "L. Berensona", "Opis": "przystanek 02 (np. 132 --> Marymont)", "Numer automatu": "M174", "Pochodzenie danych": "ZTM", "Aktualność danych": "czerwiec 2020"}}, {"type": "Feature", "_id": "725", "geometry": {"type": "Point", "coordinates": [20.94006, 52.27768]}, "properties": {"NAZWA_SERWIS": "przystanek 01 (np. 116 -> Metro Słodowiec)", "Typ": "Biletomat stacjonarny", "Lokalizacja": "S. Żeromskiego", "Opis": "przystanek 01 (np. 116 -> Metro Słodowiec)", "Numer automatu": "M176", "Pochodzenie danych": "ZTM", "Aktualność danych": "czerwiec 2020"}}, {"type": "Feature", "_id": "726", "geometry": {"type": "Point", "coordinates": [21.01515, 52.24213]}, "properties": {"NAZWA_SERWIS": "przystanek 01 (np. 116 -> Rondo de gaulle'a", "Typ": "Biletomat stacjonarny", "Lokalizacja": "Krakowskie Przedmieście", "Opis": "przystanek 01 (np. 116 -> Rondo de gaulle'a", "Numer automatu": "M177", "Pochodzenie danych": "ZTM", "Aktualność danych": "czerwiec 2020"}}, {"type": "Feature", "_id": "793", "geometry": {"type": "Point", "coordinates": [20.90204, 52.33134]}, "properties": {"NAZWA_SERWIS": "przystanek POLMO Łomianki, ul. Warszawska 31 Łomianki", "Typ": "Biletomat stacjonarny", "Lokalizacja": "Warszawska", "Opis": "przystanek POLMO Łomianki, ul. Warszawska 31 Łomianki", "Numer automatu": "2701", "Pochodzenie danych": "ZTM", "Aktualność danych": "czerwiec 2020"}}, {"type": "Feature", "_id": "799", "geometry": {"type": "Point", "coordinates": [20.58601, 52.25767]}, "properties": {"NAZWA_SERWIS": "przystanek Gmina Leszno, ul. Sochaczewska", "Typ": "Biletomat stacjonarny", "Lokalizacja": "Sochaczewska", "Opis": "przystanek Gmina Leszno, ul. Sochaczewska", "Numer automatu": "2712", "Pochodzenie danych": "ZTM", "Aktualność danych": "czerwiec 2020"}}, {"type": "Feature", "_id": "730", "geometry": {"type": "Point", "coordinates": [21.01151, 52.24646]}, "properties": {"NAZWA_SERWIS": "przystanek 01 (np. 116 kierunek pl. Zamkowy)", "Typ": "Biletomat stacjonarny", "Lokalizacja": "Miodowa", "Opis": "przystanek 01 (np. 116 kierunek pl. Zamkowy)", "Numer automatu": "M181", "Pochodzenie danych": "ZTM", "Aktualność danych": "czerwiec 2020"}}, {"type": "Feature", "_id": "546", "geometry": {"type": "Point", "coordinates": [21.09437, 52.22802]}, "properties": {"NAZWA_SERWIS": "przystanek 02 (np. 123, 148 -> Wiatraczna)", "Typ": "Biletomat stacjonarny", "Lokalizacja": "gen. A. E. Fieldorfa „Nila”", "Opis": "przystanek 02 (np. 123, 148 -> Wiatraczna)", "Numer automatu": "T081", "Pochodzenie danych": "ZTM", "Aktualność danych": "czerwiec 2020"}}, {"type": "Feature", "_id": "273", "geometry": {"type": "Point", "coordinates": [20.73371, 52.25264]}, "properties": {"NAZWA_SERWIS": "Rejon strażnicy OSP w gminie Stare Babice", "Typ": "Biletomat stacjonarny", "Lokalizacja": "Warszawska", "Opis": "Rejon strażnicy OSP w gminie Stare Babice", "Numer automatu": "360", "Pochodzenie danych": "ZTM", "Aktualność danych": "czerwiec 2020"}}, {"type": "Feature", "_id": "176", "geometry": {"type": "Point", "coordinates": [21.27775, 52.24758]}, "properties": {"NAZWA_SERWIS": "obok kas biletowych", "Typ": "Biletomat stacjonarny", "Lokalizacja": "Dworcowa", "Opis": "obok kas biletowych", "Numer automatu": "221", "Pochodzenie danych": "ZTM", "Aktualność danych": "czerwiec 2020"}}, {"type": "Feature", "_id": "844", "geometry": {"type": "Point", "coordinates": [21.02085, 52.21281]}, "properties": {"NAZWA_SERWIS": "ul. Puławska 230 Warszawa 02-670", "Typ": "Biletomat stacjonarny", "Lokalizacja": "Puławska", "Opis": "ul. Puławska 230 Warszawa 02-670", "Numer automatu": "377", "Pochodzenie danych": "ZTM", "Aktualność danych": "czerwiec 2020"}}, {"type": "Feature", "_id": "357", "geometry": {"type": "Point", "coordinates": [20.81557, 52.29276]}, "properties": {"NAZWA_SERWIS": "przy budynku urzędu ", "Typ": "Biletomat stacjonarny", "Lokalizacja": "3 Maja", "Opis": "przy budynku urzędu ", "Numer automatu": "1008", "Pochodzenie danych": "ZTM", "Aktualność danych": "czerwiec 2020"}}, {"type": "Feature", "_id": "495", "geometry": {"type": "Point", "coordinates": [21.00008, 52.25331]}, "properties": {"NAZWA_SERWIS": "przystanek 05", "Typ": "Biletomat stacjonarny", "Lokalizacja": "Bonifraterska", "Opis": "przystanek 05", "Numer automatu": "T031", "Pochodzenie danych": "ZTM", "Aktualność danych": "czerwiec 2020"}}, {"type": "Feature", "_id": "530", "geometry": {"type": "Point", "coordinates": [21.11305, 52.23619]}, "properties": {"NAZWA_SERWIS": "pętla", "Typ": "Biletomat stacjonarny", "Lokalizacja": "M. Rodziewiczówny", "Opis": "pętla", "Numer automatu": "T065", "Pochodzenie danych": "ZTM", "Aktualność danych": "czerwiec 2020"}}, {"type": "Feature", "_id": "549", "geometry": {"type": "Point", "coordinates": [21.09057, 52.22171]}, "properties": {"NAZWA_SERWIS": "przystanek 01 (np. 147 --> Wiśniowa Góra)", "Typ": "Biletomat stacjonarny", "Lokalizacja": "gen. A. E. Fieldorfa „Nila”", "Opis": "przystanek 01 (np. 147 --> Wiśniowa Góra)", "Numer automatu": "T084", "Pochodzenie danych": "ZTM", "Aktualność danych": "czerwiec 2020"}}, {"type": "Feature", "_id": "563", "geometry": {"type": "Point", "coordinates": [21.00544, 52.24891]}, "properties": {"NAZWA_SERWIS": "przystanek 01 (np. 116, 180 --> Wilanów)", "Typ": "Biletomat stacjonarny", "Lokalizacja": "pl. Krasińskich", "Opis": "przystanek 01 (np. 116, 180 --> Wilanów)", "Numer automatu": "T098", "Pochodzenie danych": "ZTM", "Aktualność danych": "czerwiec 2020"}}, {"type": "Feature", "_id": "629", "geometry": {"type": "Point", "coordinates": [20.65043, 52.44598]}, "properties": {"NAZWA_SERWIS": "przy wejściu do budynku terminala", "Typ": "Biletomat stacjonarny", "Lokalizacja": "Gen. Thommée", "Opis": "przy wejściu do budynku terminala", "Numer automatu": "M061", "Pochodzenie danych": "ZTM", "Aktualność danych": "czerwiec 2020"}}, {"type": "Feature", "_id": "657", "geometry": {"type": "Point", "coordinates": [21.02374, 52.1976]}, "properties": {"NAZWA_SERWIS": "przystanek 01 (np.172 CH Blue City)", "Typ": "Biletomat stacjonarny", "Lokalizacja": "Puławska", "Opis": "przystanek 01 (np.172 CH Blue City)", "Numer automatu": "M109", "Pochodzenie danych": "ZTM", "Aktualność danych": "czerwiec 2020"}}, {"type": "Feature", "_id": "663", "geometry": {"type": "Point", "coordinates": [20.91428, 52.25215]}, "properties": {"NAZWA_SERWIS": "w narożniku przy skwerku ", "Typ": "Biletomat stacjonarny", "Lokalizacja": "Powstańców Śląskich", "Opis": "w narożniku przy skwerku ", "Numer automatu": "M115", "Pochodzenie danych": "ZTM", "Aktualność danych": "czerwiec 2020"}}, {"type": "Feature", "_id": "686", "geometry": {"type": "Point", "coordinates": [20.98381, 52.30722]}, "properties": {"NAZWA_SERWIS": "przystanek 01 (np. 509 --> Żerań FSO)", "Typ": "Biletomat stacjonarny", "Lokalizacja": "Modlińska", "Opis": "przystanek 01 (np. 509 --> Żerań FSO)", "Numer automatu": "M138", "Pochodzenie danych": "ZTM", "Aktualność danych": "czerwiec 2020"}}, {"type": "Feature", "_id": "570", "geometry": {"type": "Point", "coordinates": [20.66477, 52.12122]}, "properties": {"NAZWA_SERWIS": "ul. Dębowa 8", "Typ": "Biletomat stacjonarny", "Lokalizacja": "Warszawska", "Opis": "ul. Dębowa 8", "Numer automatu": "M003", "Pochodzenie danych": "ZTM", "Aktualność danych": "czerwiec 2020"}}, {"type": "Feature", "_id": "660", "geometry": {"type": "Point", "coordinates": [20.99849, 52.2495]}, "properties": {"NAZWA_SERWIS": "narożnik ulic", "Typ": "Biletomat stacjonarny", "Lokalizacja": "gen. W. Andersa", "Opis": "narożnik ulic", "Numer automatu": "M112", "Pochodzenie danych": "ZTM", "Aktualność danych": "czerwiec 2020"}}, {"type": "Feature", "_id": "696", "geometry": {"type": "Point", "coordinates": [20.95482, 52.18598]}, "properties": {"NAZWA_SERWIS": "u zbiegu ul. 17 stycznia i Al. Krakowskiej ", "Typ": "Biletomat stacjonarny", "Lokalizacja": "al. Krakowska", "Opis": "u zbiegu ul. 17 stycznia i Al. Krakowskiej ", "Numer automatu": "M148", "Pochodzenie danych": "ZTM", "Aktualność danych": "czerwiec 2020"}}, {"type": "Feature", "_id": "795", "geometry": {"type": "Point", "coordinates": [20.85691, 52.34625]}, "properties": {"NAZWA_SERWIS": "przystanek Dziekanów Leśny 01", "Typ": "Biletomat stacjonarny", "Lokalizacja": "Konopnickiej", "Opis": "przystanek Dziekanów Leśny 01", "Numer automatu": "2704", "Pochodzenie danych": "ZTM", "Aktualność danych": "czerwiec 2020"}}, {"type": "Feature", "_id": "518", "geometry": {"type": "Point", "coordinates": [20.96094, 52.31632]}, "properties": {"NAZWA_SERWIS": "przystanek 03 (np. 510 --> Nowodwory)", "Typ": "Biletomat stacjonarny", "Lokalizacja": "Myśliborska", "Opis": "przystanek 03 (np. 510 --> Nowodwory)", "Numer automatu": "T053", "Pochodzenie danych": "ZTM", "Aktualność danych": "czerwiec 2020"}}, {"type": "Feature", "_id": "538", "geometry": {"type": "Point", "coordinates": [21.03678, 52.16208]}, "properties": {"NAZWA_SERWIS": "pętla", "Typ": "Biletomat stacjonarny", "Lokalizacja": "W. B. Jastrzębowskiego", "Opis": "pętla", "Numer automatu": "T073", "Pochodzenie danych": "ZTM", "Aktualność danych": "czerwiec 2020"}}, {"type": "Feature", "_id": "556", "geometry": {"type": "Point", "coordinates": [20.96626, 52.24348]}, "properties": {"NAZWA_SERWIS": "pętla, przy dawnym budynku ekspedycji", "Typ": "Biletomat stacjonarny", "Lokalizacja": "Płocka", "Opis": "pętla, przy dawnym budynku ekspedycji", "Numer automatu": "T091", "Pochodzenie danych": "ZTM", "Aktualność danych": "czerwiec 2020"}}, {"type": "Feature", "_id": "702", "geometry": {"type": "Point", "coordinates": [20.9724, 52.26465]}, "properties": {"NAZWA_SERWIS": "Przystanek 05 (np. 114-> Plac Wilsona ", "Typ": "Biletomat stacjonarny", "Lokalizacja": "Z. Krasińskiego", "Opis": "Przystanek 05 (np. 114-> Plac Wilsona ", "Numer automatu": "M154", "Pochodzenie danych": "ZTM", "Aktualność danych": "czerwiec 2020"}}, {"type": "Feature", "_id": "712", "geometry": {"type": "Point", "coordinates": [20.90018, 52.29734]}, "properties": {"NAZWA_SERWIS": "przystanek 06 (np. 701-> Młociny)", "Typ": "Biletomat stacjonarny", "Lokalizacja": "K. Wóycickiego", "Opis": "przystanek 06 (np. 701-> Młociny)", "Numer automatu": "M163", "Pochodzenie danych": "ZTM", "Aktualność danych": "czerwiec 2020"}}], "type": "FeatureCollection"}