{"features": [{"type": "Feature", "_id": "38", "geometry": {"type": "Point", "coordinates": [20.92008, 52.25612]}, "properties": {"NAZWA_SERWIS": "Ośrodek Kultury i Edukacji SM \"Wola\"", "Opis": "Ośrodek Kultury i Edukacji SM \"Wola\"", "Dzielnica": "Bemowo", "Adres": "Powstańców Śląskich 108A lok. 22", "Telefon/fax": "22 405 61 71", "Pochodzenie danych": "internet", "Aktualność danych": "marzec 2023"}}, {"type": "Feature", "_id": "89", "geometry": {"type": "Point", "coordinates": [21.07085, 52.13345]}, "properties": {"NAZWA_SERWIS": "Klub Osiedlowy Kabaty SMB „Osiedle Kabaty”", "Opis": "Klub Osiedlowy Kabaty SMB „Osiedle Kabaty”", "Dzielnica": "Ursynów", "Adres": "K. Bronikowskiego 2A", "Telefon/fax": "22 546 63 72", "Pochodzenie danych": "internet", "Aktualność danych": "marzec 2023"}}, {"type": "Feature", "_id": "92", "geometry": {"type": "Point", "coordinates": [21.10202, 52.12418]}, "properties": {"NAZWA_SERWIS": "Dom Pracy Twórczej", "Opis": "Dom Pracy Twórczej", "Dzielnica": "Wilanów", "Adres": "Ptysiowa 3", "Telefon/fax": "22 651 98 20, 668 417 228", "Pochodzenie danych": "internet", "Aktualność danych": "marzec 2023"}}, {"type": "Feature", "_id": "52", "geometry": {"type": "Point", "coordinates": [21.23853, 52.21634]}, "properties": {"NAZWA_SERWIS": "Ośrodek Działań Twórczych „Pogodna”", "Opis": "Ośrodek Działań Twórczych „Pogodna”", "Dzielnica": "Wesoła", "Adres": "Jana Pawła II 25", "Telefon/fax": "22 100 58 59, 514 030 741", "Pochodzenie danych": "internet", "Aktualność danych": "marzec 2023"}}, {"type": "Feature", "_id": "57", "geometry": {"type": "Point", "coordinates": [20.94878, 52.26971]}, "properties": {"NAZWA_SERWIS": "Osiedlowy Klub Mieszkańców WSM „Piaski”", "Opis": "Osiedlowy Klub Mieszkańców WSM „Piaski”", "Dzielnica": "Żoliborz", "Adres": "W. Broniewskiego 71", "Telefon/fax": "22 633 80 65", "Pochodzenie danych": "internet", "Aktualność danych": "marzec 2023"}}, {"type": "Feature", "_id": "88", "geometry": {"type": "Point", "coordinates": [21.07892, 52.23428]}, "properties": {"NAZWA_SERWIS": "Klub Osiedlowy \"Groszek”", "Opis": "Klub Osiedlowy \"Groszek”", "Dzielnica": "Praga-Południe", "Adres": "Ostrzycka 2/4", "Telefon/fax": "22 810 61 32", "Pochodzenie danych": "internet", "Aktualność danych": "marzec 2023"}}, {"type": "Feature", "_id": "68", "geometry": {"type": "Point", "coordinates": [21.04191, 52.22559]}, "properties": {"NAZWA_SERWIS": "Klub Osiedlowy SBM Torwar \"Panorama\"", "Opis": "Klub Osiedlowy SBM Torwar \"Panorama\"", "Dzielnica": "Śródmieście", "Adres": "Górnośląska 1", "Telefon/fax": "22 629 22 23", "Pochodzenie danych": "internet", "Aktualność danych": "marzec 2023"}}, {"type": "Feature", "_id": "4", "geometry": {"type": "Point", "coordinates": [21.0521, 52.1899]}, "properties": {"NAZWA_SERWIS": "Ośrodek Edukacji Kulturalnej \"Sadyba\"", "Opis": "Ośrodek Edukacji Kulturalnej \"Sadyba\"", "Dzielnica": "Mokotów", "Adres": "Korczyńska 6", "Telefon/fax": "22 642 59 08", "Pochodzenie danych": "internet", "Aktualność danych": "marzec 2023"}}, {"type": "Feature", "_id": "81", "geometry": {"type": "Point", "coordinates": [20.98772, 52.21943]}, "properties": {"NAZWA_SERWIS": "Magazyn Sztuk", "Opis": "Magazyn Sztuk", "Dzielnica": "Ochota", "Adres": "Radomska 13/21", "Telefon/fax": "22 823 37 56", "Pochodzenie danych": "internet", "Aktualność danych": "marzec 2023"}}, {"type": "Feature", "_id": "74", "geometry": {"type": "Point", "coordinates": [20.97428, 52.21289]}, "properties": {"NAZWA_SERWIS": "Pracownia Ceramiki „AngobA”", "Opis": "Pracownia Ceramiki „AngobA”", "Dzielnica": "Ochota", "Adres": "Przemyska 18", "Telefon/fax": "22 822 48 70", "Pochodzenie danych": "internet", "Aktualność danych": "marzec 2023"}}, {"type": "Feature", "_id": "20", "geometry": {"type": "Point", "coordinates": [21.17983, 52.24365]}, "properties": {"NAZWA_SERWIS": "Ośrodek Działań Twórczych \"Zielona\"", "Opis": "Ośrodek Działań Twórczych \"Zielona\"", "Dzielnica": "Wesoła", "Adres": "Wilanowska 3", "Telefon/fax": "22 506 51 57, 514 047 332", "Pochodzenie danych": "internet", "Aktualność danych": "marzec 2023"}}, {"type": "Feature", "_id": "96", "geometry": {"type": "Point", "coordinates": [20.90567, 52.2336]}, "properties": {"NAZWA_SERWIS": "Amfiteatr Bemowo", "Opis": "Amfiteatr Bemowo", "Dzielnica": "Bemowo", "Adres": "Park \"Górczewska\"  ", "Telefon/fax": "798 992 039", "Pochodzenie danych": "internet", "Aktualność danych": "marzec 2023"}}, {"type": "Feature", "_id": "46", "geometry": {"type": "Point", "coordinates": [21.03639, 52.14946]}, "properties": {"NAZWA_SERWIS": "Klub A4 filia DK „Imielin”", "Opis": "Klub A4 filia DK „Imielin”", "Dzielnica": "Ursynów", "Adres": "R. Amundsena 4", "Telefon/fax": "22 641 55 18", "Pochodzenie danych": "internet", "Aktualność danych": "marzec 2023"}}, {"type": "Feature", "_id": "22", "geometry": {"type": "Point", "coordinates": [21.0705, 52.16411]}, "properties": {"NAZWA_SERWIS": "Centrum Kultury Wilanów Filia w ALTO Wilanów", "Opis": "Centrum Kultury Wilanów Filia w ALTO Wilanów", "Dzielnica": "Wilanów", "Adres": "al. Rzeczypospolitej 14", "Telefon/fax": "784 001 653", "Pochodzenie danych": "internet", "Aktualność danych": "marzec 2023"}}, {"type": "Feature", "_id": "55", "geometry": {"type": "Point", "coordinates": [20.94773, 52.23167]}, "properties": {"NAZWA_SERWIS": "Amfiteatr w Parku Sowińskiego", "Opis": "Amfiteatr w Parku Sowińskiego", "Dzielnica": "Wola", "Adres": "Elekcyjna 17", "Telefon/fax": "22 836 22 15", "Pochodzenie danych": "internet", "Aktualność danych": "marzec 2023"}}, {"type": "Feature", "_id": "1", "geometry": {"type": "Point", "coordinates": [21.06635, 52.31196]}, "properties": {"NAZWA_SERWIS": "Białołęcki Ośrodek Kultury", "Opis": "Białołęcki Ośrodek Kultury", "Dzielnica": "Białołęka", "Adres": "Głębocka 66", "Telefon/fax": "22 300 48 00", "Pochodzenie danych": "internet", "Aktualność danych": "marzec 2023"}}, {"type": "Feature", "_id": "44", "geometry": {"type": "Point", "coordinates": [21.08493, 52.16885]}, "properties": {"NAZWA_SERWIS": "Centrum Kultury Wilanów", "Opis": "Centrum Kultury Wilanów", "Dzielnica": "Wilanów", "Adres": "Kolegiacka 3", "Telefon/fax": "22 651 98 20, 668 417 228", "Pochodzenie danych": "internet", "Aktualność danych": "marzec 2023"}}, {"type": "Feature", "_id": "34", "geometry": {"type": "Point", "coordinates": [20.97887, 52.2606]}, "properties": {"NAZWA_SERWIS": "Centrum Lokalne Żoliborz", "Opis": "Centrum Lokalne Żoliborz", "Dzielnica": "Żoliborz", "Adres": "L. Rydygiera 6B", "Telefon/fax": "517 161 789", "Pochodzenie danych": "internet", "Aktualność danych": "marzec 2023"}}, {"type": "Feature", "_id": "2", "geometry": {"type": "Point", "coordinates": [20.90036, 52.22733]}, "properties": {"NAZWA_SERWIS": "Bemowskie Centrum Kultury", "Opis": "Bemowskie Centrum Kultury", "Dzielnica": "Bemowo", "Adres": "Rozłogi 18", "Telefon/fax": "798 992 039", "Pochodzenie danych": "internet", "Aktualność danych": "marzec 2023"}}, {"type": "Feature", "_id": "11", "geometry": {"type": "Point", "coordinates": [21.04871, 52.27275]}, "properties": {"NAZWA_SERWIS": "Arthouse Kołowa", "Opis": "Arthouse Kołowa", "Dzielnica": "Targówek", "Adres": "Kołowa 18", "Telefon/fax": "571 225 500", "Pochodzenie danych": "internet", "Aktualność danych": "marzec 2023"}}, {"type": "Feature", "_id": "86", "geometry": {"type": "Point", "coordinates": [21.01679, 52.24246]}, "properties": {"NAZWA_SERWIS": "Dom Spotkań z Historią", "Opis": "Dom Spotkań z Historią", "Dzielnica": "Śródmieście", "Adres": "Karowa 20", "Telefon/fax": "22 255 05 00", "Pochodzenie danych": "internet", "Aktualność danych": "marzec 2023"}}, {"type": "Feature", "_id": "76", "geometry": {"type": "Point", "coordinates": [21.08031, 52.23617]}, "properties": {"NAZWA_SERWIS": "Ośrodek Edukacji Kulturalnej SBM \"Grenadierów\"", "Opis": "Ośrodek Edukacji Kulturalnej SBM \"Grenadierów\"", "Dzielnica": "Praga-Południe", "Adres": "Aleja Stanów Zjednoczonych 40", "Telefon/fax": "22 810 44 12", "Pochodzenie danych": "internet", "Aktualność danych": "marzec 2023"}}], "type": "FeatureCollection"}