{"features": [{"type": "Feature", "_id": "447", "geometry": {"type": "Point", "coordinates": [21.0732, 52.24576]}, "properties": {"NAZWA_SERWIS": "figura św. Ekspedyta", "Nazwa": "figura św. Ekspedyta", "Dzielnica": "Praga-Południe", "Autor": "", "Odsłonięcie": "", "Materiał": "", "Wymiary": "", "Forma": "figura nad bramą przedstawia Św. Ekspedyta - rzymskiego legionistę w zbroi i płaszczu, który trzyma w dłoniach krzyż i palmę, a nogą depcze kruka", "Pochodzenie danych": "BGiK", "Aktualność danych": "maj 2017"}}, {"type": "Feature", "_id": "403", "geometry": {"type": "Point", "coordinates": [20.99707, 52.26724]}, "properties": {"NAZWA_SERWIS": "pomnik Hibnera, Kniewskiego i Rutkowskiego", "Nazwa": "pomnik Hibnera, Kniewskiego i Rutkowskiego", "Dzielnica": "Żoliborz", "Autor": "", "Odsłonięcie": "", "Materiał": "", "Wymiary": "", "Forma": "", "Pochodzenie danych": "BGiK", "Aktualność danych": "kwiecień 2017"}}, {"type": "Feature", "_id": "226", "geometry": {"type": "Point", "coordinates": [21.03033, 52.21218]}, "properties": {"NAZWA_SERWIS": "pomnik Maurycego Mochnackiego", "Nazwa": "pomnik Maurycego Mochnackiego", "Dzielnica": "Śródmieście", "Autor": "Wiesław Winkler", "Odsłonięcie": "28-11-2000", "Materiał": "brąz (rzeźba), marmur (postument), piaskowiec (schody)", "Wymiary": "94 cm wys. (popiersie), ok. 4 m wys. (całość)", "Forma": "popiersie na cokole", "Pochodzenie danych": "BGiK", "Aktualność danych": "styczeń 2015"}}, {"type": "Feature", "_id": "163", "geometry": {"type": "Point", "coordinates": [21.08904, 52.26054]}, "properties": {"NAZWA_SERWIS": "monolit upamiętniający", "Nazwa": "monolit upamiętniający", "Dzielnica": "Targówek", "Autor": "", "Odsłonięcie": "", "Materiał": "", "Wymiary": "", "Forma": "monolit upamiętniający miejsce zamordowania przez okupanta sześciuset Żydów", "Pochodzenie danych": "BGiK", "Aktualność danych": "lipiec 2016"}}, {"type": "Feature", "_id": "126", "geometry": {"type": "Point", "coordinates": [20.94021, 52.31934]}, "properties": {"NAZWA_SERWIS": "pomnik bł. Edmunda Bojanowskiego", "Nazwa": "pomnik bł. Edmunda Bojanowskiego", "Dzielnica": "Białołęka", "Autor": "Władysław Kisielecki", "Odsłonięcie": "16-06-1998", "Materiał": "sztuczny kamień pomalowany na biało (rzeźba), cokół obłożony płytkami ceramicznymi imitującymi cegłę", "Wymiary": "ok. 2 m wys., rzeźba ok. 1 m wys.", "Forma": "postać mężczyzny siedząca na ławce i dwoje dzieci", "Pochodzenie danych": "BGiK", "Aktualność danych": "styczeń 2015"}}, {"type": "Feature", "_id": "121", "geometry": {"type": "Point", "coordinates": [21.00364, 52.24108]}, "properties": {"NAZWA_SERWIS": "rzeźba Wisła i Wołga", "Nazwa": "rzeźba Wisła i Wołga", "Dzielnica": "Śródmieście", "Autor": "Teresa Brzóskiewicz", "Odsłonięcie": "1985", "Materiał": "brak danych", "Wymiary": "brak danych", "Forma": "brak danych", "Pochodzenie danych": "BGiK", "Aktualność danych": "styczeń 2015"}}, {"type": "Feature", "_id": "43", "geometry": {"type": "Point", "coordinates": [21.03597, 52.21499]}, "properties": {"NAZWA_SERWIS": "pomnik Ignacego Jana Paderewskiego", "Nazwa": "pomnik Ignacego Jana Paderewskiego", "Dzielnica": "Śródmieście", "Autor": "Alfons Karny", "Odsłonięcie": " ", "Materiał": "brąz (rzeźba), piaskowiec (cokół)", "Wymiary": "ok. 2 m wys.", "Forma": "popiersie na cokole", "Pochodzenie danych": "BGiK", "Aktualność danych": "styczeń 2015"}}, {"type": "Feature", "_id": "87", "geometry": {"type": "Point", "coordinates": [21.13342, 52.23559]}, "properties": {"NAZWA_SERWIS": "pomnik gen. Franciszka Żymirskiego", "Nazwa": "pomnik gen. Franciszka Żymirskiego", "Dzielnica": "Wawer", "Autor": "Stanisław Sikora", "Odsłonięcie": "06-12-1987", "Materiał": "brąz (rzeźba), kostki granitowe (cokół)", "Wymiary": "ok. 3 m wys.", "Forma": "popiersie na cokole", "Pochodzenie danych": "BGiK", "Aktualność danych": "styczeń 2015"}}, {"type": "Feature", "_id": "25", "geometry": {"type": "Point", "coordinates": [21.06079, 52.22965]}, "properties": {"NAZWA_SERWIS": "pomnik Adama Mickiewicza", "Nazwa": "pomnik Adama Mickiewicza", "Dzielnica": "Praga-Południe", "Autor": "Eugeniusz Kozak", "Odsłonięcie": "2000", "Materiał": "brąz (rzeźba), granit (cokół)", "Wymiary": "ok. 2,5 m wys.", "Forma": "popiersie na cokole, na ziemi w pobliżu pomnika umieszczona otwarta księga", "Pochodzenie danych": "BGiK", "Aktualność danych": "styczeń 2015"}}, {"type": "Feature", "_id": "174", "geometry": {"type": "Point", "coordinates": [21.02536, 52.18324]}, "properties": {"NAZWA_SERWIS": "Dzwon Pokoju", "Nazwa": "Dzwon Pokoju", "Dzielnica": "Mokotów", "Autor": "nieznany", "Odsłonięcie": "dzwon odzywa się od 1989, dzwon został skradziony w nocy z 3 na 4-12-2002", "Materiał": "brak danych", "Wymiary": "brak danych", "Forma": "dzwon wiszący pod małą, drewnianą pagodą, stojącą na wzniesieniu, dzwon o kształcie metalowego cylindra", "Pochodzenie danych": "BGiK", "Aktualność danych": "styczeń 2015"}}, {"type": "Feature", "_id": "8", "geometry": {"type": "Point", "coordinates": [21.03075, 52.22103]}, "properties": {"NAZWA_SERWIS": "rzeźba Ab ovo", "Nazwa": "rzeźba Ab ovo", "Dzielnica": "Śródmieście", "Autor": "Antonina Wysocka-Jończak", "Odsłonięcie": "1975", "Materiał": "brak danych", "Wymiary": "brak danych", "Forma": "brak danych", "Pochodzenie danych": "BGiK", "Aktualność danych": "styczeń 2015"}}, {"type": "Feature", "_id": "68", "geometry": {"type": "Point", "coordinates": [21.03081, 52.22787]}, "properties": {"NAZWA_SERWIS": "rzeźba Dziewczyna z gołębiem", "Nazwa": "rzeźba Dziewczyna z gołębiem", "Dzielnica": "Śródmieście", "Autor": "Franciszek Habdas", "Odsłonięcie": "1975", "Materiał": "brak danych", "Wymiary": "brak danych", "Forma": "brak danych", "Pochodzenie danych": "BGiK", "Aktualność danych": "maj 2017"}}, {"type": "Feature", "_id": "336", "geometry": {"type": "Point", "coordinates": [21.03126, 52.22836]}, "properties": {"NAZWA_SERWIS": "Unity", "Nazwa": "Unity", "Dzielnica": "Śródmieście", "Autor": "Jerzy Kenar", "Odsłonięcie": "18-04-2013", "Materiał": "granit", "Wymiary": "średnica ok. 11 metrów i wysokość nieco ponad 1 metr", "Forma": "granitowa plecionka ma średnicę ok. 11 metrów i wysokość nieco ponad 1 m.", "Pochodzenie danych": "BGiK", "Aktualność danych": "maj 2017"}}, {"type": "Feature", "_id": "295", "geometry": {"type": "Point", "coordinates": [21.02612, 52.25385]}, "properties": {"NAZWA_SERWIS": "pomnik Elizy Orzeszkowej", "Nazwa": "pomnik Elizy Orzeszkowej", "Dzielnica": "Praga-Północ", "Autor": "Henryk Kuna", "Odsłonięcie": "30-10-1938, 30-10-2003", "Materiał": "brąz (rzeźba), granit (cokół)", "Wymiary": "ok. 0,5 m wys. (rzeźba), 2m wys. (cokół)", "Forma": "popiersie na cokole", "Pochodzenie danych": "BGiK", "Aktualność danych": "styczeń 2015"}}, {"type": "Feature", "_id": "307", "geometry": {"type": "Point", "coordinates": [21.07266, 52.17937]}, "properties": {"NAZWA_SERWIS": "figura św. Jana Nepomucena", "Nazwa": "figura św. Jana Nepomucena", "Dzielnica": "Mokotów", "Autor": "ponowne wykonanie Maria Owczarczyk", "Odsłonięcie": "figura rozpadła sie w 1981, ponowne odłonięcie po rekonstrukcji 1999, przeniesiona na terażniejsze miejsce w 2002", "Materiał": "brak danych", "Wymiary": "brak danych", "Forma": "postać na cokole", "Pochodzenie danych": "BGiK", "Aktualność danych": "styczeń 2015"}}, {"type": "Feature", "_id": "348", "geometry": {"type": "Point", "coordinates": [20.95441, 52.26021]}, "properties": {"NAZWA_SERWIS": "Żołnierzom Armii Ludowej", "Nazwa": "Żołnierzom Armii Ludowej", "Dzielnica": "Żoliborz", "Autor": "", "Odsłonięcie": "", "Materiał": "", "Wymiary": "", "Forma": "", "Pochodzenie danych": "BGiK", "Aktualność danych": "czerwiec 2017"}}, {"type": "Feature", "_id": "131", "geometry": {"type": "Point", "coordinates": [21.04728, 52.23804]}, "properties": {"NAZWA_SERWIS": "rzeźba Sztafeta", "Nazwa": "rzeźba Sztafeta", "Dzielnica": "Praga-Południe", "Autor": "Adam Roman", "Odsłonięcie": "22-07-1955, 2008", "Materiał": "Beton", "Wymiary": "4,5 m.", "Forma": "3 biegaczy w momencie przekazywania pałeczki", "Pochodzenie danych": "BGiK", "Aktualność danych": "styczeń 2015"}}, {"type": "Feature", "_id": "167", "geometry": {"type": "Point", "coordinates": [21.04121, 52.22865]}, "properties": {"NAZWA_SERWIS": "pomnik Chwała Saperom", "Nazwa": "pomnik Chwała Saperom", "Dzielnica": "Śródmieście", "Autor": "Stanisław Kulon", "Odsłonięcie": "08-05-1975", "Materiał": "stal, blacha (pylony), brąz (rzeźba sapera i płaskorzeźby), granit (postument), żelazobeton (rzeźba w Wiśle)", "Wymiary": "pylon 17 m wys., rzeźba 2,5 m wys., płaskorzeźba 2,1 m, rzeźba w Wiśle ok. 6,5 m wys.", "Pochodzenie danych": "BGiK", "Aktualność danych": "styczeń 2015"}}, {"type": "Feature", "_id": "48", "geometry": {"type": "Point", "coordinates": [21.04901, 52.25515]}, "properties": {"NAZWA_SERWIS": "kapliczka  przydrożna z figurą Matki Boskiej z Dzieciątkiem z 1908 roku", "Nazwa": "kapliczka  przydrożna z figurą Matki Boskiej z Dzieciątkiem z 1908 roku", "Dzielnica": "Praga-Północ", "Autor": "", "Odsłonięcie": "", "Materiał": "", "Wymiary": "", "Forma": "figura Matki Boskiej z Dzieciątkiem", "Pochodzenie danych": "BGiK", "Aktualność danych": "lipiec 2016"}}, {"type": "Feature", "_id": "432", "geometry": {"type": "Point", "coordinates": [21.03059, 52.21679]}, "properties": {"NAZWA_SERWIS": "Pies As", "Nazwa": "Pies As", "Dzielnica": "Śródmieście", "Autor": "Czesław Makowski", "Odsłonięcie": "", "Materiał": "", "Wymiary": "", "Forma": "Rzeźba przedstawia śpiącego wyżła Asa, bohatera noweli Adolfa Dygasińskiego.", "Pochodzenie danych": "BGiK", "Aktualność danych": "maj 2018"}}, {"type": "Feature", "_id": "311", "geometry": {"type": "Point", "coordinates": [21.08344, 52.16486]}, "properties": {"NAZWA_SERWIS": "pomnik Króla Jana III Sobieskiego", "Nazwa": "pomnik Króla Jana III Sobieskiego", "Dzielnica": "Wilanów", "Autor": "Edward Jeliński (rzeźba), Tadeusz Dębski (buława)", "Odsłonięcie": "09-09-2001, buława 15-09-2001", "Materiał": "brąz (rzeźba), granit (cokół), mosiądz (buława)", "Wymiary": "ok. 3 m wys. (rzeźba), buława 9 m wys., podstawa 78 cm, waga 2,5 t", "Forma": "król w pozycji siedzącej w fotelu, obok stojąca Marysieńka, u stóp króla 2 wyżły; na cokole-herb Sobieskich, Janina i nazwiska darczyńców; 2 część pomnika stanowi stojąca buława", "Pochodzenie danych": "BGiK", "Aktualność danych": "kwiecień 2017"}}, {"type": "Feature", "_id": "346", "geometry": {"type": "Point", "coordinates": [20.95449, 52.26031]}, "properties": {"NAZWA_SERWIS": "Pomnik żołnierzy Batalionów Chłopskich", "Nazwa": "Pomnik żołnierzy Batalionów Chłopskich", "Dzielnica": "Żoliborz", "Autor": "", "Odsłonięcie": "", "Materiał": "", "Wymiary": "", "Forma": "", "Pochodzenie danych": "BGiK", "Aktualność danych": "czerwiec 2017"}}, {"type": "Feature", "_id": "389", "geometry": {"type": "Point", "coordinates": [21.03398, 52.21089]}, "properties": {"NAZWA_SERWIS": "zegar słoneczny", "Nazwa": "zegar słoneczny", "Dzielnica": "Śródmieście", "Autor": "Adam Myjak", "Odsłonięcie": "2012 r.", "Materiał": "", "Wymiary": "", "Forma": "", "Pochodzenie danych": "BGiK", "Aktualność danych": "czerwiec 2018"}}, {"type": "Feature", "_id": "44", "geometry": {"type": "Point", "coordinates": [20.9582, 52.28445]}, "properties": {"NAZWA_SERWIS": "pomnik marsz. Józefa Piłsudskiego", "Nazwa": "pomnik marsz. Józefa Piłsudskiego", "Dzielnica": "Bielany", "Autor": "Alfons Karny (rzeźba), Jerzy Kalina (cokół)", "Odsłonięcie": "27-07-1990", "Materiał": "różowy granit (rzeźba), szary granit (cokół)", "Wymiary": "ok. 70-80 cm wys. (rzeźba), ok. 3 m wys. (cokół)", "Forma": "popiersie na cokole, od frontu daty 1990, 1949", "Pochodzenie danych": "BGiK", "Aktualność danych": "styczeń 2015"}}, {"type": "Feature", "_id": "61", "geometry": {"type": "Point", "coordinates": [21.1456, 52.22322]}, "properties": {"NAZWA_SERWIS": "pomnik Poległych w pierwszej masowej egzekucji Polaków 27 grudnia 1939 r.", "Nazwa": "pomnik Poległych w pierwszej masowej egzekucji Polaków 27 grudnia 1939 r.", "Dzielnica": "Wawer", "Autor": "Józef Gazy (rzeźby), Ewa Śliwińska (projekt cmentarza)", "Odsłonięcie": "1950", "Materiał": "piaskowiec (rzeźby)", "Wymiary": "3 m wys. (rzeźby), 1,7 m wys. (cokół)", "Forma": "cmentarz na nim dwie rzeźby na cokołach i wojownika", "Pochodzenie danych": "BGiK", "Aktualność danych": "styczeń 2015"}}, {"type": "Feature", "_id": "81", "geometry": {"type": "Point", "coordinates": [21.06381, 52.23873]}, "properties": {"NAZWA_SERWIS": "rzeźba Wiosna", "Nazwa": "rzeźba Wiosna", "Dzielnica": "Praga-Południe", "Autor": "Teresa Brzóskiewicz", "Odsłonięcie": "1975", "Materiał": "brak danych", "Wymiary": "brak danych", "Forma": "brak danych", "Pochodzenie danych": "BGiK", "Aktualność danych": "styczeń 2015"}}, {"type": "Feature", "_id": "296", "geometry": {"type": "Point", "coordinates": [20.89874, 52.25312]}, "properties": {"NAZWA_SERWIS": "pomnik Floriana Grabczyńskiego", "Nazwa": "pomnik Floriana Grabczyńskiego", "Dzielnica": "Bemowo", "Autor": "brak danych", "Odsłonięcie": "01-06-2001", "Materiał": "brąz (rzeźba), kamień (cokół)", "Wymiary": "niewielkich rozmiarów brązowe popiersie umieszczono na okazałym dwumetrowym kamiennym cokole", "Forma": "popiersie na cokole", "Pochodzenie danych": "BGiK", "Aktualność danych": "styczeń 2015"}}, {"type": "Feature", "_id": "104", "geometry": {"type": "Point", "coordinates": [21.02997, 52.22082]}, "properties": {"NAZWA_SERWIS": "rzeźba Bez tytułu", "Nazwa": "rzeźba Bez tytułu", "Dzielnica": "Śródmieście", "Autor": "nieznany", "Odsłonięcie": "1975", "Materiał": "brak danych", "Wymiary": "brak danych", "Forma": "brak danych", "Pochodzenie danych": "BGiK", "Aktualność danych": "styczeń 2015"}}, {"type": "Feature", "_id": "205", "geometry": {"type": "Point", "coordinates": [21.02609, 52.18165]}, "properties": {"NAZWA_SERWIS": "Orzeł na kolumnie", "Nazwa": "Orzeł na kolumnie", "Dzielnica": "Mokotów", "Autor": "nieznany", "Odsłonięcie": "1998", "Materiał": "piaskowiec", "Wymiary": "ok. 10 m wys.", "Forma": "orzeł na kolumnie i cokole", "Pochodzenie danych": "BGiK", "Aktualność danych": "styczeń 2015"}}, {"type": "Feature", "_id": "319", "geometry": {"type": "Point", "coordinates": [21.03019, 52.21698]}, "properties": {"NAZWA_SERWIS": "monolit Miejsce uświęcone krwią Polaków poległych za wolność Ojczyzny", "Nazwa": "monolit Miejsce uświęcone krwią Polaków poległych za wolność Ojczyzny", "Dzielnica": "Śródmieście", "Autor": "brak danych", "Odsłonięcie": "1956", "Materiał": "brak danych", "Wymiary": "brak danych", "Forma": "brak danych", "Pochodzenie danych": "BGiK", "Aktualność danych": "styczeń 2015"}}, {"type": "Feature", "_id": "137", "geometry": {"type": "Point", "coordinates": [21.01097, 52.23002]}, "properties": {"NAZWA_SERWIS": "słup kilometrowy", "Nazwa": "słup kilometrowy", "Dzielnica": "Śródmieście", "Autor": "brak danych", "Odsłonięcie": "Ustawiony między 1952-1955", "Materiał": "Granit", "Wymiary": "brak danych", "Forma": "Prostopadłościan z wypisanymi na nim odległościami do wybranych miast polskich i europejskich", "Pochodzenie danych": "BGiK", "Aktualność danych": "styczeń 2015"}}, {"type": "Feature", "_id": "273", "geometry": {"type": "Point", "coordinates": [21.08762, 52.23007]}, "properties": {"NAZWA_SERWIS": "pomnik Kota Niezależnego Cyryla", "Nazwa": "pomnik Kota Niezależnego Cyryla", "Dzielnica": "Praga-Południe", "Autor": "Bogna Czechowska", "Odsłonięcie": "29-05-2011", "Materiał": "Brąz", "Wymiary": "brak danych", "Forma": "Kot wyciągający garb leżąc na kamieniu", "Pochodzenie danych": "BGiK", "Aktualność danych": "styczeń 2015"}}, {"type": "Feature", "_id": "56", "geometry": {"type": "Point", "coordinates": [21.04038, 52.20466]}, "properties": {"NAZWA_SERWIS": "pomnik Miguela de Cervantesa", "Nazwa": "pomnik Miguela de Cervantesa", "Dzielnica": "Mokotów", "Autor": "brak danych", "Odsłonięcie": "24-04-2004", "Materiał": "brak danych", "Wymiary": "brak danych", "Forma": "popiersie na cokole", "Pochodzenie danych": "BGiK", "Aktualność danych": "styczeń 2015"}}, {"type": "Feature", "_id": "332", "geometry": {"type": "Point", "coordinates": [21.05488, 52.22698]}, "properties": {"NAZWA_SERWIS": "pomnik gen. Zygmunta Berlinga", "Nazwa": "pomnik gen. Zygmunta Berlinga", "Dzielnica": "Praga-Południe", "Autor": "Kazimierz Danilewicz", "Odsłonięcie": "1985", "Materiał": "biały marmur \"Kojełga\" (rosyjski) (rzeźba), czerwony piaskowiec (cokół)", "Wymiary": "całość 6 m wys., cokół 3 m wys.", "Forma": "postać w mundurze, z lornetką w ręce, na cokole, frontową ścianę cokołu zdobi orzeł (bez korony)", "Pochodzenie danych": "BGiK", "Aktualność danych": "styczeń 2015"}}, {"type": "Feature", "_id": "242", "geometry": {"type": "Point", "coordinates": [21.13691, 52.25387]}, "properties": {"NAZWA_SERWIS": "pomnik Ofiar egzekucji niemieckich dokonywanych w lasach Kawęczyna", "Nazwa": "pomnik Ofiar egzekucji niemieckich dokonywanych w lasach Kawęczyna", "Dzielnica": "Rembertów", "Autor": "brak danych", "Materiał": "brak danych", "Wymiary": "brak danych", "Forma": "krzyż i kamień w kształcie serca", "Pochodzenie danych": "BGiK", "Aktualność danych": "styczeń 2015"}}, {"type": "Feature", "_id": "92", "geometry": {"type": "Point", "coordinates": [20.98346, 52.20984]}, "properties": {"NAZWA_SERWIS": "pomnik Młodzieży Lekarskiej", "Nazwa": "pomnik Młodzieży Lekarskiej", "Dzielnica": "Ochota", "Autor": "brak danych", "Odsłonięcie": " ", "Materiał": "kamień", "Wymiary": "brak danych", "Forma": "Kamień z upamiętniającym napisem", "Pochodzenie danych": "BGiK", "Aktualność danych": "styczeń 2015"}}, {"type": "Feature", "_id": "405", "geometry": {"type": "Point", "coordinates": [20.99609, 52.3181]}, "properties": {"NAZWA_SERWIS": "figura Matki Bożej z 1915 roku", "Nazwa": "figura Matki Bożej z 1915 roku", "Dzielnica": "Białołęka", "Autor": "", "Odsłonięcie": "", "Materiał": "", "Wymiary": "ok. 360 cm", "Forma": "figura Matki Bożej Królowej Polski z Dzieciątkiem Jezus, figura stoi na wysokim, składającym się z dwóch części, prawie 2 metrowym postumencie zwieńczonym ozdobnym gzymsem", "Pochodzenie danych": "BGiK", "Aktualność danych": "kwiecień 2017"}}, {"type": "Feature", "_id": "128", "geometry": {"type": "Point", "coordinates": [20.94832, 52.3215]}, "properties": {"NAZWA_SERWIS": "pomnik „Małych Powstańców”", "Nazwa": "pomnik „Małych Powstańców”", "Dzielnica": "Białołęka", "Odsłonięcie": "02-10-1999", "Materiał": "brąz (rzeźba), kamień (cokół)", "Wymiary": "ok. 2 m wys. (całość), ok. 50 cm (rzeźba)", "Forma": "dwoje dzieci w hełmach, na cokole", "Pochodzenie danych": "BGiK", "Aktualność danych": "styczeń 2015"}}, {"type": "Feature", "_id": "113", "geometry": {"type": "Point", "coordinates": [21.00737, 52.25913]}, "properties": {"NAZWA_SERWIS": "rzeźba Samotność", "Nazwa": "rzeźba Samotność", "Dzielnica": "Śródmieście", "Autor": "brak danych", "Odsłonięcie": " ", "Materiał": "brak danych", "Wymiary": "brak danych", "Forma": "brak danych", "Pochodzenie danych": "BGiK", "Aktualność danych": "styczeń 2015"}}, {"type": "Feature", "_id": "407", "geometry": {"type": "Point", "coordinates": [21.07816, 52.27962]}, "properties": {"NAZWA_SERWIS": "pomnik pamięci Józefa Elsnera", "Nazwa": "pomnik pamięci Józefa Elsnera", "Dzielnica": "Targówek", "Autor": "", "Odsłonięcie": "05-09-2010", "Materiał": "jasny polerowany granit", "Wymiary": "ok. 1,5 m", "Forma": "półtorametrowa złamana kolumna", "Pochodzenie danych": "BGiK", "Aktualność danych": "kwiecień 2017"}}, {"type": "Feature", "_id": "66", "geometry": {"type": "Point", "coordinates": [20.99458, 52.21522]}, "properties": {"NAZWA_SERWIS": "pomnik Ofiar katastrofy lotniczej w 1980 r.", "Nazwa": "pomnik Ofiar katastrofy lotniczej w 1980 r.", "Dzielnica": "Ochota", "Autor": "Auldwin Thomas Schomberg", "Odsłonięcie": "13-11- 1986", "Materiał": "brąz (rzeźba), granit (cokół)", "Wymiary": "wysokość ponad 2,5 metra (postument 213 cm, figura 0,5 m)", "Forma": "forma graniastosłupa o podstawie trójkątnej, na którym leży znokautowany bokser.", "Pochodzenie danych": "BGiK", "Aktualność danych": "styczeń 2015"}}, {"type": "Feature", "_id": "101", "geometry": {"type": "Point", "coordinates": [20.97646, 52.171]}, "properties": {"NAZWA_SERWIS": "pomnik Prekursorów lotnictwa polskiego", "Nazwa": "pomnik Prekursorów lotnictwa polskiego", "Dzielnica": "Włochy", "Autor": "brak danych", "Odsłonięcie": " ", "Materiał": "Szkło", "Wymiary": "brak danych", "Forma": "Sklejone ze sobą tafle szkła, przez całą wysokość zdobi go motyw śmigła", "Pochodzenie danych": "BGiK", "Aktualność danych": "styczeń 2015"}}, {"type": "Feature", "_id": "440", "geometry": {"type": "Point", "coordinates": [21.03371, 52.20956]}, "properties": {"NAZWA_SERWIS": "Poganka", "Nazwa": "Poganka", "Dzielnica": "Śródmieście", "Autor": "Zofia Trzcińska-Kamińska", "Odsłonięcie": "lata 30. XX w.", "Materiał": "biały marmur", "Wymiary": "", "Forma": "młoda, naga kobieta wypatrująca porannego brzasku", "Pochodzenie danych": "BGiK", "Aktualność danych": "maj 2017"}}, {"type": "Feature", "_id": "112", "geometry": {"type": "Point", "coordinates": [21.02613, 52.19161]}, "properties": {"NAZWA_SERWIS": "pomnik Matki Polki", "Nazwa": "pomnik Matki Polki", "Dzielnica": "Mokotów", "Autor": "Hanna Danilewicz", "Odsłonięcie": "06-10-1977", "Materiał": "brąz (rzeźba), granit (cokół)", "Wymiary": "ok. 3 m wys., rzeźba ok. 1,5 m wys.", "Pochodzenie danych": "BGiK", "Aktualność danych": "styczeń 2015"}}, {"type": "Feature", "_id": "274", "geometry": {"type": "Point", "coordinates": [21.03445, 52.22285]}, "properties": {"NAZWA_SERWIS": "pomnik Króla Stefana Batorego", "Nazwa": "pomnik Króla Stefana Batorego", "Dzielnica": "Śródmieście", "Autor": "Tadeusz Szadeberg", "Odsłonięcie": "27-09-1933, 09-1991", "Materiał": "brąz (rzeźba), granit (cokół)", "Wymiary": "ok. 3 m wys.", "Forma": "popiersie króla na cokole", "Pochodzenie danych": "BGiK", "Aktualność danych": "styczeń 2015"}}, {"type": "Feature", "_id": "67", "geometry": {"type": "Point", "coordinates": [21.05336, 52.24]}, "properties": {"NAZWA_SERWIS": "pomnik Poległych Żołnierzy Armii Czerwonej", "Nazwa": "pomnik Poległych Żołnierzy Armii Czerwonej", "Dzielnica": "Praga-Południe", "Autor": "projekt-mjr Antonienko, wykonanie-Stanisław Sikora, Stefan Monot i Józef Trenorowski", "Odsłonięcie": "15-09-1946", "Materiał": "piaskowiec", "Wymiary": "ok.3 m wys.", "Forma": "uskokowo rozbudowany w poziomie wydatny postument, zwieńczony stelą z płaskorzeźbą popiersia żołnierz i złożonymi sztandarami u jej podstawy", "Pochodzenie danych": "BGiK", "Aktualność danych": "styczeń 2015"}}, {"type": "Feature", "_id": "284", "geometry": {"type": "Point", "coordinates": [21.04167, 52.21386]}, "properties": {"NAZWA_SERWIS": "pomnik gen. Józefa Bema", "Nazwa": "pomnik gen. Józefa Bema", "Dzielnica": "Śródmieście", "Autor": "Bohdan Święcicki", "Odsłonięcie": "1924", "Materiał": "brąz (rzeźba), piaskowiec (cokół)", "Wymiary": "rzeźba ok. 70 cm wys., cokół 2 m wys.", "Forma": "popiersie na cokole", "Pochodzenie danych": "BGiK", "Aktualność danych": "styczeń 2015"}}, {"type": "Feature", "_id": "393", "geometry": {"type": "Point", "coordinates": [21.03699, 52.21441]}, "properties": {"NAZWA_SERWIS": "Tankred i Klorynda", "Nazwa": "Tankred i Klorynda", "Dzielnica": "Śródmieście", "Autor": "kopia rzeźby Francesco Lazzaroniego", "Odsłonięcie": "", "Materiał": "", "Wymiary": "", "Forma": "rzeźba ukazuje moment śmierci Saracenki Kloryndy na rękach kochającego ją krzyżowca Tankreda", "Pochodzenie danych": "BGiK", "Aktualność danych": "czerwiec 2018"}}, {"type": "Feature", "_id": "399", "geometry": {"type": "Point", "coordinates": [20.97782, 52.26944]}, "properties": {"NAZWA_SERWIS": "Kobieta z dzieckiem", "Nazwa": "Kobieta z dzieckiem", "Dzielnica": "Żoliborz", "Autor": "Alina Szapocznikow", "Odsłonięcie": "1949-50, zrewitalizowana 29-09-2012", "Materiał": "piaskowiec", "Wymiary": "około 1,5 metra", "Forma": "kobieta, która trzyma dziecko", "Pochodzenie danych": "BGiK", "Aktualność danych": "kwiecień 2017"}}, {"type": "Feature", "_id": "428", "geometry": {"type": "Point", "coordinates": [21.1671, 52.21427]}, "properties": {"NAZWA_SERWIS": "miejsce rozstrzelania 12 mężczyzn w Aninie", "Nazwa": "miejsce rozstrzelania 12 mężczyzn w Aninie", "Dzielnica": "Wawer", "Autor": "", "Odsłonięcie": "", "Materiał": "", "Wymiary": "", "Forma": "ogrodzony krzyż i płyta pamiątkowa w kolorze czarnym z nazwiskami zamordowanych", "Pochodzenie danych": "BGiK", "Aktualność danych": "kwiecień 2017"}}, {"type": "Feature", "_id": "385", "geometry": {"type": "Point", "coordinates": [21.00979, 52.25625]}, "properties": {"NAZWA_SERWIS": "Rozdroże 2010", "Nazwa": "Rozdroże 2010", "Dzielnica": "Śródmieście", "Autor": "Magdalena Abakanowicz", "Odsłonięcie": "13 listopada 2010", "Materiał": "stal", "Wymiary": "ok. 3m", "Forma": "Cztery stalowe rzeżby wykonane ze spawanych kawałków blachy. Abstrakcyjne postacie około 3m wysokości.", "Pochodzenie danych": "BGiK", "Aktualność danych": "maj 2018"}}, {"type": "Feature", "_id": "390", "geometry": {"type": "Point", "coordinates": [21.03547, 52.21274]}, "properties": {"NAZWA_SERWIS": "Neptun", "Nazwa": "Neptun", "Dzielnica": "Śródmieście", "Autor": "", "Odsłonięcie": "", "Materiał": "", "Wymiary": "", "Forma": "", "Pochodzenie danych": "BGiK", "Aktualność danych": "czerwiec 2018"}}, {"type": "Feature", "_id": "313", "geometry": {"type": "Point", "coordinates": [21.06992, 52.26633]}, "properties": {"NAZWA_SERWIS": "monolit Miejsce uświęcone krwią Polaków poległych za wolność Ojczyzny", "Nazwa": "monolit Miejsce uświęcone krwią Polaków poległych za wolność Ojczyzny", "Dzielnica": "Targówek", "Autor": "", "Odsłonięcie": "", "Materiał": "", "Wymiary": "", "Forma": "monolit z piaskowca wmiejscu rozstrzelania 1 sierpnia 1944 roku trzydziestu jeden Powstańców", "Pochodzenie danych": "BGiK", "Aktualność danych": "lipiec 2016"}}, {"type": "Feature", "_id": "97", "geometry": {"type": "Point", "coordinates": [21.03511, 52.21459]}, "properties": {"NAZWA_SERWIS": "pomnik Króla Stanisława Augusta Poniatowskiego", "Nazwa": "pomnik Króla Stanisława Augusta Poniatowskiego", "Dzielnica": "Śródmieście", "Autor": "orginał-Andre le Brun, kopia-Leszek Krystianik, Andrzej Pruski", "Odsłonięcie": "07-05-1997", "Materiał": "brąz (rzeźba), marmur (kolumienka)", "Wymiary": "ok. 2 m wys.", "Forma": "popiersie na kolumience", "Pochodzenie danych": "BGiK", "Aktualność danych": "styczeń 2015"}}, {"type": "Feature", "_id": "221", "geometry": {"type": "Point", "coordinates": [21.03622, 52.17555]}, "properties": {"NAZWA_SERWIS": "figura św. Jana Nepomucena", "Nazwa": "figura św. Jana Nepomucena", "Dzielnica": "Mokotów", "Autor": "1864", "Odsłonięcie": " ", "Materiał": "wapń", "Wymiary": "brak danych", "Forma": "postać na cokole", "Pochodzenie danych": "BGiK", "Aktualność danych": "styczeń 2015"}}, {"type": "Feature", "_id": "15", "geometry": {"type": "Point", "coordinates": [21.05887, 52.24165]}, "properties": {"NAZWA_SERWIS": "rzeźba Rytm", "Nazwa": "rzeźba Rytm", "Dzielnica": "Praga-Południe", "Autor": "Henryk Kuna", "Odsłonięcie": "1929", "Materiał": "brak danych", "Wymiary": "brak danych", "Forma": "brak danych", "Pochodzenie danych": "BGiK", "Aktualność danych": "styczeń 2015"}}, {"type": "Feature", "_id": "293", "geometry": {"type": "Point", "coordinates": [20.96253, 52.25348]}, "properties": {"NAZWA_SERWIS": "pomnik gen. Karola Kaczkowskiego", "Nazwa": "pomnik gen. Karola Kaczkowskiego", "Dzielnica": "Wola", "Autor": "nieznany", "Odsłonięcie": "25-02-1931, 20-06-1960", "Materiał": "granit", "Wymiary": "4 m wys.", "Forma": "obelisk z medalionami", "Pochodzenie danych": "BGiK", "Aktualność danych": "styczeń 2015"}}, {"type": "Feature", "_id": "190", "geometry": {"type": "Point", "coordinates": [21.05599, 52.1763]}, "properties": {"NAZWA_SERWIS": "pomnik Jana III Sobieskiego", "Nazwa": "pomnik Jana III Sobieskiego", "Dzielnica": "Mokotów", "Autor": "Marian Żołądek", "Odsłonięcie": "12-09-1983", "Materiał": "ceramika, tworzywo metalizowane na kolor miedzi (rzeźba), metal (postument)", "Wymiary": "ok. 2 m wys.", "Forma": "popiersie króla w wieńcu laurowym na głowie, na postumencie w kształcie walca", "Pochodzenie danych": "BGiK", "Aktualność danych": "styczeń 2015"}}, {"type": "Feature", "_id": "315", "geometry": {"type": "Point", "coordinates": [21.0308, 52.24804]}, "properties": {"NAZWA_SERWIS": "pomnik Kościuszkowców", "Nazwa": "pomnik Kościuszkowców", "Dzielnica": "Praga-Północ", "Odsłonięcie": "17-01-1985", "Materiał": "brąz (rzeźba), granit (płyta i otoczenie pomnika)", "Wymiary": "całość (wraz z cokołem i nasypem), 16 m wys., rzeźba ok. 12 m wys., waga 48 t, cokół 15 m dług. i 2 m wys.", "Forma": "postać biegnącego Kościuszkowca w rozwianej pałatce-pelerynie, w rogatywce, z pepeszą w dłoni, druga zaś wyciągnięta w górę", "Pochodzenie danych": "BGiK", "Aktualność danych": "styczeń 2015"}}, {"type": "Feature", "_id": "445", "geometry": {"type": "Point", "coordinates": [21.07002, 52.26659]}, "properties": {"NAZWA_SERWIS": "kapliczka", "Nazwa": "kapliczka", "Dzielnica": "Targówek", "Autor": "", "Odsłonięcie": "", "Materiał": "", "Wymiary": "", "Forma": " wzorowana na dawnych latarniach umarłych posiada dwie nisze w figurami Jezusa Miłosiernego oraz św. Faustyny", "Pochodzenie danych": "BGiK", "Aktualność danych": "maj 2017"}}, {"type": "Feature", "_id": "159", "geometry": {"type": "Point", "coordinates": [21.00293, 52.25647]}, "properties": {"NAZWA_SERWIS": "rzeźba Macierzyństwo", "Nazwa": "rzeźba Macierzyństwo", "Dzielnica": "Śródmieście", "Autor": "Wacław Szymanowski", "Odsłonięcie": "1929", "Materiał": "brak danych", "Wymiary": "brak danych", "Forma": "brak danych", "Pochodzenie danych": "BGiK", "Aktualność danych": "styczeń 2015"}}, {"type": "Feature", "_id": "408", "geometry": {"type": "Point", "coordinates": [21.06044, 52.26238]}, "properties": {"NAZWA_SERWIS": "kapliczka", "Nazwa": "kapliczka", "Dzielnica": "Targówek", "Autor": "", "Odsłonięcie": "1903", "Materiał": "", "Wymiary": "", "Forma": "", "Pochodzenie danych": "BGiK", "Aktualność danych": "kwiecień 2017"}}], "type": "FeatureCollection"}