{"features": [{"type": "Feature", "_id": "AAEIekAAAAAAEW9AAB", "geometry": {"type": "Point", "coordinates": [21.07077, 52.24679]}, "properties": {"TYP": "Sale Koncertowe", "Typ obiektu": "Sale Koncertowe", "Opis": "Sinfonia Varsovia", "Adres": "Grochowska 272", "Telefon/fax": "22 582 70 82", "WWW": "https://www.sinfoniavarsovia.org/", "Pochodzenie danych": "strony internetowe obiektów", "Aktualność danych": "kwiecień 2023"}}, {"type": "Feature", "_id": "AAEIekAAAAAAEW9AAC", "geometry": {"type": "Point", "coordinates": [21.01378, 52.18205]}, "properties": {"TYP": "Sale Koncertowe", "Typ obiektu": "Sale Koncertowe", "Opis": "Studio Koncertowe Polskiego Radia im. Witolda Lutosławskiego", "Adres": "Zygmunta Modzelewskiego 59", "Telefon/fax": "22 645 52 52", "WWW": "https://www.studianagran.com.pl/", "Pochodzenie danych": "strony internetowe obiektów", "Aktualność danych": "kwiecień 2023"}}, {"type": "Feature", "_id": "AAEIekAAAAAAEW9AAD", "geometry": {"type": "Point", "coordinates": [21.0222, 52.23569]}, "properties": {"TYP": "Sale Koncertowe", "Typ obiektu": "Sale Koncertowe", "Opis": "Akademia Muzyczna im. Fryderyka Chopina", "Adres": "Okólnik 2", "Telefon/fax": "22 827 72 41", "WWW": "https://chopin.edu.pl/", "Pochodzenie danych": "strony internetowe obiektów", "Aktualność danych": "kwiecień 2023"}}, {"type": "Feature", "_id": "AAEIekAACAAI55NAAI", "geometry": {"type": "Point", "coordinates": [21.01422, 52.24775]}, "properties": {"TYP": "Sale Koncertowe", "Typ obiektu": "Sale Koncertowe", "Opis": "Sala Koncertowa Zamku Królewskiego", "Adres": "pl. Zamkowy 4", "Telefon/fax": "22 355 51 70", "WWW": "https://www.zamek-krolewski.pl/strona/593-sala-koncertowa", "Pochodzenie danych": "strony internetowe obiektów", "Aktualność danych": "kwiecień 2023"}}, {"type": "Feature", "_id": "AAEIekAACAAI55NAAJ", "geometry": {"type": "Point", "coordinates": [21.03571, 52.22036]}, "properties": {"TYP": "Sale Koncertowe", "Typ obiektu": "Sale Koncertowe", "Opis": "Muzyczne Studio Polskiego Radia im. Agnieszki Osieckiej", "Adres": "Myśliwiecka 3/5/7", "Telefon/fax": "22 645 52 52", "WWW": "https://www.studianagran.com.pl/", "Pochodzenie danych": "strony internetowe obiektów", "Aktualność danych": "kwiecień 2023"}}], "type": "FeatureCollection"}