{"features": [{"type": "Feature", "_id": "UD-II-WDG-7340/I/B-841/2024", "geometry": {"type": "Point", "coordinates": [20.95187, 52.31932]}, "properties": {"RODZAJ_TYLKO_A": 60.0, "NAZWA_SERWIS": "ZEZWOLENIA ALKOHOLOWE - SPRZEDAŻ DETALICZNA", "Nazwa punktu": "sklep rybny \"Rybna Strefa\"", "Adres": "Światowida róg Ćmielowskiej paw. nr 37 (na terenie Centrum Handlowo-Usługowego)"}}, {"type": "Feature", "_id": "UD-VI-WDG-7340/I/B-110/2024", "geometry": {"type": "Point", "coordinates": [21.09247, 52.22386]}, "properties": {"RODZAJ_TYLKO_A": 60.0, "NAZWA_SERWIS": "ZEZWOLENIA ALKOHOLOWE - SPRZEDAŻ DETALICZNA", "Rodzaj punktu": "sklep spożywczy", "Nazwa punktu": "\"Organic Farma Zdrowia\"", "Adres": "ul. gen. A. E. Fieldorfa \"Nila\" 10A lokal nr  206"}}, {"type": "Feature", "_id": "UD-XIII-WDG-7340/I/B-906/2024", "geometry": {"type": "Point", "coordinates": [21.16083, 52.24102]}, "properties": {"RODZAJ_TYLKO_A": 60.0, "NAZWA_SERWIS": "ZEZWOLENIA ALKOHOLOWE - SPRZEDAŻ DETALICZNA", "Nazwa punktu": "Supermarket Drogeryjny  Rossmann", "Adres": "ul. Korkowa 165"}}, {"type": "Feature", "_id": "UD-XI-ZDG-7340/I/B-122/2024", "geometry": {"type": "Point", "coordinates": [20.87533, 52.18614]}, "properties": {"RODZAJ_TYLKO_A": 60.0, "NAZWA_SERWIS": "ZEZWOLENIA ALKOHOLOWE - SPRZEDAŻ DETALICZNA", "Rodzaj punktu": "sklep winiarski", "Nazwa punktu": "REPUBLIKA WINA", "Adres": "ul. Ochocka 1A"}}, {"type": "Feature", "_id": "UD-IX-WDG-7340/I/B-182/2024", "geometry": {"type": "Point", "coordinates": [21.02615, 52.2239]}, "properties": {"RODZAJ_TYLKO_A": 60.0, "NAZWA_SERWIS": "ZEZWOLENIA ALKOHOLOWE - SPRZEDAŻ DETALICZNA", "Nazwa punktu": "punkt sprzedaży napojów alkoholowych w Domu Aukcyjnym \"DESA UNICUM S.A\"", "Adres": "ul. Piękna 1A"}}, {"type": "Feature", "_id": "UD-II-WDG-7340/I/B-857/2024", "geometry": {"type": "Point", "coordinates": [21.00305, 52.32382]}, "properties": {"RODZAJ_TYLKO_A": 60.0, "NAZWA_SERWIS": "ZEZWOLENIA ALKOHOLOWE - SPRZEDAŻ DETALICZNA", "Nazwa punktu": "sklep spożywczo-piekarniczy", "Adres": "ul. Smugowa 30B"}}, {"type": "Feature", "_id": "UD-III-WDG-7340/I/B-817/2024", "geometry": {"type": "Point", "coordinates": [20.89208, 52.28499]}, "properties": {"RODZAJ_TYLKO_A": 60.0, "NAZWA_SERWIS": "ZEZWOLENIA ALKOHOLOWE - SPRZEDAŻ DETALICZNA", "Nazwa punktu": "sklep z alkoholem \"Wina Dionizosa\"", "Adres": "ul. Arkuszowa 125 lokal nr  1"}}, {"type": "Feature", "_id": "UD-VI-WDG-7340/I/C-332/2021", "geometry": {"type": "Point", "coordinates": [21.09501, 52.23455]}, "properties": {"RODZAJ_TYLKO_A": 60.0, "NAZWA_SERWIS": "ZEZWOLENIA ALKOHOLOWE - SPRZEDAŻ DETALICZNA", "Rodzaj punktu": "sklep wielobranżowy", "Nazwa punktu": "na stacji paliw ", "Adres": "ul. Filomatów 6 (wejście od ul. Ostrobramskiej)"}}, {"type": "Feature", "_id": "UD-XVIII-WDG-7340/I/B-1083/2024", "geometry": {"type": "Point", "coordinates": [20.97557, 52.27307]}, "properties": {"RODZAJ_TYLKO_A": 60.0, "NAZWA_SERWIS": "ZEZWOLENIA ALKOHOLOWE - SPRZEDAŻ DETALICZNA", "Nazwa punktu": "stoisko sprzedaży napojów alkoholowych, ul. Gdańska 2 lok. 128 B,01-633 Warszawa", "Adres": "ul. Gdańska 2 lokal nr  128 B (wejście od ul. Bieniewickiej)"}}, {"type": "Feature", "_id": "UD-XI-ZDG-7340/I/B-569/2024", "geometry": {"type": "Point", "coordinates": [20.85614, 52.2002]}, "properties": {"RODZAJ_TYLKO_A": 60.0, "NAZWA_SERWIS": "ZEZWOLENIA ALKOHOLOWE - SPRZEDAŻ DETALICZNA", "Rodzaj punktu": "sklep monopolowy", "Nazwa punktu": "\"Sklep z whisky\"", "Adres": "ul. Królowej Bony 46 (wejście do sklepu od ul. Henryka Brodatego)"}}, {"type": "Feature", "_id": "UD-VI-WDG-7340/I/B-993/2016", "geometry": {"type": "Point", "coordinates": [21.0957, 52.24246]}, "properties": {"RODZAJ_TYLKO_A": 60.0, "NAZWA_SERWIS": "ZEZWOLENIA ALKOHOLOWE - SPRZEDAŻ DETALICZNA", "Rodzaj punktu": "sklep winiarski", "Nazwa punktu": "", "Adres": "ul. Omulewska 27"}}, {"type": "Feature", "_id": "UD-XI-ZDG-7340/I/B-59/2024", "geometry": {"type": "Point", "coordinates": [20.89232, 52.18468]}, "properties": {"RODZAJ_TYLKO_A": 60.0, "NAZWA_SERWIS": "ZEZWOLENIA ALKOHOLOWE - SPRZEDAŻ DETALICZNA", "Nazwa punktu": "wydzielone stoisko monopolowe w Drogerii  Rossmann", "Adres": "ul. gen. K. Sosnkowskiego 2B"}}, {"type": "Feature", "_id": "UD-VII-WDG-7340/I/B-4/2016", "geometry": {"type": "Point", "coordinates": [21.02861, 52.26473]}, "properties": {"RODZAJ_TYLKO_A": 60.0, "NAZWA_SERWIS": "ZEZWOLENIA ALKOHOLOWE - SPRZEDAŻ DETALICZNA", "Rodzaj punktu": "sklep spożywczy", "Nazwa punktu": "", "Adres": "ul. K. Darwina 16 lokal nr  2a"}}, {"type": "Feature", "_id": "UD-XIII-WDG-7340/I/C-16/2023", "geometry": {"type": "Point", "coordinates": [21.16911, 52.15987]}, "properties": {"RODZAJ_TYLKO_A": 60.0, "NAZWA_SERWIS": "ZEZWOLENIA ALKOHOLOWE - SPRZEDAŻ DETALICZNA", "Nazwa punktu": "Sklep przyfabryczny - MIKROGORZELNIA", "Adres": "ul. Wał Miedzeszyński 131B"}}, {"type": "Feature", "_id": "UD-IV-WDG-7340/I/B-992/2021", "geometry": {"type": "Point", "coordinates": [21.02261, 52.18382]}, "properties": {"RODZAJ_TYLKO_A": 60.0, "NAZWA_SERWIS": "ZEZWOLENIA ALKOHOLOWE - SPRZEDAŻ DETALICZNA", "Nazwa punktu": "stoisko sprzedaży detalicznej w magazynie napojów alkoholowych ", "Adres": "ul. Domaniewska 10"}}, {"type": "Feature", "_id": "UD-XV-WBK.FK-7340/I/C-132/2020", "geometry": {"type": "Point", "coordinates": [21.10321, 52.18055]}, "properties": {"RODZAJ_TYLKO_A": 60.0, "NAZWA_SERWIS": "ZEZWOLENIA ALKOHOLOWE - SPRZEDAŻ DETALICZNA", "Nazwa punktu": "sklep branżowy z napojami alkoholowymi", "Adres": "ul. Glebowa 18F"}}, {"type": "Feature", "_id": "UD-XIII-WDG-7340/I/B-556/2024", "geometry": {"type": "Point", "coordinates": [21.15942, 52.21206]}, "properties": {"RODZAJ_TYLKO_A": 60.0, "NAZWA_SERWIS": "ZEZWOLENIA ALKOHOLOWE - SPRZEDAŻ DETALICZNA", "Nazwa punktu": "stoisko z winem w sklepie Flora Point", "Adres": "ul. Mrówcza 212"}}, {"type": "Feature", "_id": "UD-XVI-WDG-7340/I/B-263/2021", "geometry": {"type": "Point", "coordinates": [20.92079, 52.17456]}, "properties": {"RODZAJ_TYLKO_A": 60.0, "NAZWA_SERWIS": "ZEZWOLENIA ALKOHOLOWE - SPRZEDAŻ DETALICZNA", "Nazwa punktu": "stoisko sprzedaży detalicznej przy magazynie i hurtowni napojów alkoholowych", "Adres": "ul. Szyszkowa 43"}}, {"type": "Feature", "_id": "UD-XIV-WOM-7340/I/B-928/2024", "geometry": {"type": "Point", "coordinates": [21.17976, 52.24526]}, "properties": {"RODZAJ_TYLKO_A": 60.0, "NAZWA_SERWIS": "ZEZWOLENIA ALKOHOLOWE - SPRZEDAŻ DETALICZNA", "Nazwa punktu": "Sklep z winami \"La Casa del Primitivo\"", "Adres": "ul. Wspólna 2F lokal nr  1U"}}, {"type": "Feature", "_id": "UD-VIII-WDG-D-7340/I/B-300/2023", "geometry": {"type": "Point", "coordinates": [21.12268, 52.26864]}, "properties": {"RODZAJ_TYLKO_A": 60.0, "NAZWA_SERWIS": "ZEZWOLENIA ALKOHOLOWE - SPRZEDAŻ DETALICZNA", "Nazwa punktu": "Sklep SLODKIE sp. z o.o.", "Adres": "ul. Chełmżyńska 180H"}}, {"type": "Feature", "_id": "UD-VI-WDG-7340/I/B-130/2018", "geometry": {"type": "Point", "coordinates": [21.11477, 52.23594]}, "properties": {"RODZAJ_TYLKO_A": 60.0, "NAZWA_SERWIS": "ZEZWOLENIA ALKOHOLOWE - SPRZEDAŻ DETALICZNA", "Nazwa punktu": "wydzielone stoisko winiarskie w restauracji \"Zielone Krzesła\"", "Adres": "ul. Jubilerska 10"}}, {"type": "Feature", "_id": "UD-XIII-WDG-7340/I/B-771/2019", "geometry": {"type": "Point", "coordinates": [21.16539, 52.21356]}, "properties": {"RODZAJ_TYLKO_A": 60.0, "NAZWA_SERWIS": "ZEZWOLENIA ALKOHOLOWE - SPRZEDAŻ DETALICZNA", "Rodzaj punktu": "sklep wielobranżowy", "Nazwa punktu": "Skład Win.eu", "Adres": "ul. M. Kajki 31"}}, {"type": "Feature", "_id": "UD-I-WDG-B-7340/I/B-70/2025", "geometry": {"type": "Point", "coordinates": [20.93275, 52.25506]}, "properties": {"RODZAJ_TYLKO_A": 60.0, "NAZWA_SERWIS": "ZEZWOLENIA ALKOHOLOWE - SPRZEDAŻ DETALICZNA", "Nazwa punktu": "SKLEP Z WINEM \"CELLIER\"", "Adres": "ul. Obrońców Tobruku 29 lokal nr  173"}}, {"type": "Feature", "_id": "UD-VI-WDG-7340/I/B-319/2016", "geometry": {"type": "Point", "coordinates": [21.10677, 52.22786]}, "properties": {"RODZAJ_TYLKO_A": 60.0, "NAZWA_SERWIS": "ZEZWOLENIA ALKOHOLOWE - SPRZEDAŻ DETALICZNA", "Rodzaj punktu": "sklep ogólnospożywczy", "Nazwa punktu": "", "Adres": "ul. Szkoły Orląt 4 lokal nr  11/19"}}, {"type": "Feature", "_id": "UD-X-WDZ-AH-7340/I/B-1113/2023", "geometry": {"type": "Point", "coordinates": [21.07265, 52.28288]}, "properties": {"RODZAJ_TYLKO_A": 60.0, "NAZWA_SERWIS": "ZEZWOLENIA ALKOHOLOWE - SPRZEDAŻ DETALICZNA", "Nazwa punktu": "wydzielone stoisko w magazynie", "Adres": "ul. Tużycka 2"}}, {"type": "Feature", "_id": "UD-VIII-WDG-D-7340/I/B-618/2020", "geometry": {"type": "Point", "coordinates": [21.15762, 52.26355]}, "properties": {"RODZAJ_TYLKO_A": 60.0, "NAZWA_SERWIS": "ZEZWOLENIA ALKOHOLOWE - SPRZEDAŻ DETALICZNA", "Nazwa punktu": "sklep spożywczo-przemysłowy \"NA ZAWODOWEJ\"", "Adres": "ul. Zawodowa 2A"}}, {"type": "Feature", "_id": "UD-XVI-WDG-7340/I/B-474/2024", "geometry": {"type": "Point", "coordinates": [20.95148, 52.18569]}, "properties": {"RODZAJ_TYLKO_A": 60.0, "NAZWA_SERWIS": "ZEZWOLENIA ALKOHOLOWE - SPRZEDAŻ DETALICZNA", "Nazwa punktu": "stiosko sprzedaży detalicznej napojów alkoholowych ", "Adres": "ul. Krakowiaków 4 lokal nr  9"}}, {"type": "Feature", "_id": "UD-X-WDZ-ZH-7340/I/C-550/2016", "geometry": {"type": "Point", "coordinates": [21.09649, 52.26199]}, "properties": {"RODZAJ_TYLKO_A": 60.0, "NAZWA_SERWIS": "ZEZWOLENIA ALKOHOLOWE - SPRZEDAŻ DETALICZNA", "Nazwa punktu": "wydzielone stoisko w części magazynu napojów alkoholowych", "Adres": "ul. Łubinowa 4 magazyn nr 17"}}, {"type": "Feature", "_id": "UD-XVI-WDG-7340/I/C-451/2022", "geometry": {"type": "Point", "coordinates": [20.94765, 52.1915]}, "properties": {"RODZAJ_TYLKO_A": 60.0, "NAZWA_SERWIS": "ZEZWOLENIA ALKOHOLOWE - SPRZEDAŻ DETALICZNA", "Nazwa punktu": "stoisko sprzedaży detalicznej napojów alkoholowych w hurtowni napojów ", "Adres": "ul. Orzechowa 46"}}, {"type": "Feature", "_id": "UD-XIII-WDG-7340/I/B-659/2020", "geometry": {"type": "Point", "coordinates": [21.15541, 52.21897]}, "properties": {"RODZAJ_TYLKO_A": 60.0, "NAZWA_SERWIS": "ZEZWOLENIA ALKOHOLOWE - SPRZEDAŻ DETALICZNA", "Nazwa punktu": "stoisko z winem mszalnym w sklepie z artykułami liturgicznymi i dewocjonaliami", "Adres": "ul. V Poprzeczna 1"}}, {"type": "Feature", "_id": "UD-III-WDG-7340/I/B-526/2023", "geometry": {"type": "Point", "coordinates": [20.93425, 52.28621]}, "properties": {"RODZAJ_TYLKO_A": 60.0, "NAZWA_SERWIS": "ZEZWOLENIA ALKOHOLOWE - SPRZEDAŻ DETALICZNA", "Rodzaj punktu": "sklep ogólnospożywczy", "Nazwa punktu": "\"SÓWKA\"", "Adres": "ul. W. Szekspira 4 lokal nr  8015"}}, {"type": "Feature", "_id": "UD-XIII-WDG-7340/I/B-1120/2023", "geometry": {"type": "Point", "coordinates": [21.15618, 52.21484]}, "properties": {"RODZAJ_TYLKO_A": 60.0, "NAZWA_SERWIS": "ZEZWOLENIA ALKOHOLOWE - SPRZEDAŻ DETALICZNA", "Nazwa punktu": "sklep Rossmann nr 1877", "Adres": "ul. Widoczna 17 lokal nr  2"}}, {"type": "Feature", "_id": "UD-XVI-WDG-7340/I/B-1030/2022", "geometry": {"type": "Point", "coordinates": [20.9334, 52.19753]}, "properties": {"RODZAJ_TYLKO_A": 60.0, "NAZWA_SERWIS": "ZEZWOLENIA ALKOHOLOWE - SPRZEDAŻ DETALICZNA", "Nazwa punktu": "Punkt sprzedaży napojów alkoholowych Silverbird ", "Adres": "ul. Zagadki 21"}}, {"type": "Feature", "_id": "UD-I-WDG-B-7340/I/B-827/2023", "geometry": {"type": "Point", "coordinates": [20.8899, 52.2316]}, "properties": {"RODZAJ_TYLKO_A": 60.0, "NAZWA_SERWIS": "ZEZWOLENIA ALKOHOLOWE - SPRZEDAŻ DETALICZNA", "Rodzaj punktu": "sklep ogólnospożywczy", "Nazwa punktu": "Beef&Pork", "Adres": "ul. Batalionów Chłopskich 87 lokal nr  U4"}}, {"type": "Feature", "_id": "UD-IV-WDG-7340/I/B-321/2024", "geometry": {"type": "Point", "coordinates": [20.99445, 52.17062]}, "properties": {"RODZAJ_TYLKO_A": 60.0, "NAZWA_SERWIS": "ZEZWOLENIA ALKOHOLOWE - SPRZEDAŻ DETALICZNA", "Nazwa punktu": "wydzielone stoisko z winem w Supermarkecie Drogeryjnym Rossmann nr 1671", "Adres": "ul. Bokserska 56 lokal nr  L2/3"}}, {"type": "Feature", "_id": "UD-XVI-WDG-7340/I/B-727/2024", "geometry": {"type": "Point", "coordinates": [20.94149, 52.17816]}, "properties": {"RODZAJ_TYLKO_A": 60.0, "NAZWA_SERWIS": "ZEZWOLENIA ALKOHOLOWE - SPRZEDAŻ DETALICZNA", "Nazwa punktu": "punkt sprzedaży detalicznej w magazynie artkułów spożywczych", "Adres": "ul. Buńczuk 7B"}}, {"type": "Feature", "_id": "UD-X-WDZ-ZH-7340/I/B-100/2016", "geometry": {"type": "Point", "coordinates": [21.06464, 52.27207]}, "properties": {"RODZAJ_TYLKO_A": 60.0, "NAZWA_SERWIS": "ZEZWOLENIA ALKOHOLOWE - SPRZEDAŻ DETALICZNA", "Rodzaj punktu": "sklep monopolowy", "Nazwa punktu": "", "Adres": "ul. Rajgrodzka 20"}}, {"type": "Feature", "_id": "UD-II-WDG-7340/I/B-796/2024", "geometry": {"type": "Point", "coordinates": [21.03081, 52.31289]}, "properties": {"RODZAJ_TYLKO_A": 60.0, "NAZWA_SERWIS": "ZEZWOLENIA ALKOHOLOWE - SPRZEDAŻ DETALICZNA", "Nazwa punktu": "sklep z alkoholem FIORI", "Adres": "ul. Białołęcka 196"}}, {"type": "Feature", "_id": "UD-II-WDG-7340/I/B-646/2024", "geometry": {"type": "Point", "coordinates": [20.96695, 52.3324]}, "properties": {"RODZAJ_TYLKO_A": 60.0, "NAZWA_SERWIS": "ZEZWOLENIA ALKOHOLOWE - SPRZEDAŻ DETALICZNA", "Rodzaj punktu": "sklep spożywczo-monopolowy", "Nazwa punktu": "DEKANTER.PL", "Adres": "ul. Czarodzieja 2 lokal nr  1"}}, {"type": "Feature", "_id": "UD-II-WDG-7340/I/B-819/2023", "geometry": {"type": "Point", "coordinates": [20.9829, 52.32597]}, "properties": {"RODZAJ_TYLKO_A": 60.0, "NAZWA_SERWIS": "ZEZWOLENIA ALKOHOLOWE - SPRZEDAŻ DETALICZNA", "Rodzaj punktu": "sklep spożywczo-monopolowy", "Nazwa punktu": "\"Wine & Sweets\"", "Adres": "ul. Kołacińska 35"}}, {"type": "Feature", "_id": "UD-II-WDG-7340/I/B-716/2021", "geometry": {"type": "Point", "coordinates": [21.01004, 52.30766]}, "properties": {"RODZAJ_TYLKO_A": 60.0, "NAZWA_SERWIS": "ZEZWOLENIA ALKOHOLOWE - SPRZEDAŻ DETALICZNA", "Nazwa punktu": "wydzielone stoisko z alkoholem w magazynie", "Adres": "ul. Marywilska 34D budynek D-1"}}, {"type": "Feature", "_id": "UD-IX-WDG-7340/I/B-466/2024", "geometry": {"type": "Point", "coordinates": [21.02615, 52.2239]}, "properties": {"RODZAJ_TYLKO_A": 60.0, "NAZWA_SERWIS": "ZEZWOLENIA ALKOHOLOWE - SPRZEDAŻ DETALICZNA", "Nazwa punktu": "Punkt sprzedaży napojów alkoholowych w Desa Fine Wine", "Adres": "ul. Piękna 1A"}}, {"type": "Feature", "_id": "UD-XIII-WDG-7340/I/B-42/2025", "geometry": {"type": "Point", "coordinates": [21.20276, 52.16448]}, "properties": {"RODZAJ_TYLKO_A": 60.0, "NAZWA_SERWIS": "ZEZWOLENIA ALKOHOLOWE - SPRZEDAŻ DETALICZNA", "Nazwa punktu": "sklep Kraina Wina", "Adres": "ul. Włókiennicza 90B"}}, {"type": "Feature", "_id": "UD-XII-WDG-7340/I/B-305/2018", "geometry": {"type": "Point", "coordinates": [21.00044, 52.15728]}, "properties": {"RODZAJ_TYLKO_A": 60.0, "NAZWA_SERWIS": "ZEZWOLENIA ALKOHOLOWE - SPRZEDAŻ DETALICZNA", "Nazwa punktu": "sklep \"dobrewina.pl\"", "Adres": "ul. Wyczółki 46"}}, {"type": "Feature", "_id": "UD-III-WDG-7340/I/B-61/2024", "geometry": {"type": "Point", "coordinates": [20.92911, 52.29368]}, "properties": {"RODZAJ_TYLKO_A": 60.0, "NAZWA_SERWIS": "ZEZWOLENIA ALKOHOLOWE - SPRZEDAŻ DETALICZNA", "Nazwa punktu": "Supermarket Drogeryjny Rossmann Nr 1320", "Adres": "ul. Zgrupowania AK \"Kampinos\" 15 lokal nr  0.9 Galeria Młociny"}}], "type": "FeatureCollection"}