{"features": [{"type": "Feature", "_id": "AAKE1hAAAAAAIg7AAX", "geometry": {"type": "Point", "coordinates": [20.93774, 52.20385]}, "properties": {"RODZAJ_TYLKO_A": 60.0, "Rodzaj punktu": "", "Nazwa punktu": "sklep spożywczo-prasowy \"1-Minute\"", "Adres": "Al. Jerozolimskie 172 na terenie kompleksu KOPERNIK OFFICE BUILDINGS"}}, {"type": "Feature", "_id": "AAKE1hAADAANDCoAAX", "geometry": {"type": "Point", "coordinates": [20.99445, 52.17062]}, "properties": {"RODZAJ_TYLKO_A": 60.0, "Rodzaj punktu": "", "Nazwa punktu": "wydzielone stoisko z winem w Supermarkecie Drogeryjnym Rossmann nr 1671", "Adres": "ul. Bokserska 56 lokal nr  L2/3"}}, {"type": "Feature", "_id": "AAKE1hAADAANDCrAAO", "geometry": {"type": "Point", "coordinates": [20.89232, 52.18468]}, "properties": {"RODZAJ_TYLKO_A": 60.0, "Rodzaj punktu": "", "Nazwa punktu": "wydzielone stoisko monopolowe w Drogerii  Rossmann", "Adres": "ul. gen. K. Sosnkowskiego 2B"}}, {"type": "Feature", "_id": "AAKE1hAADAANDCyAAO", "geometry": {"type": "Point", "coordinates": [20.95121, 52.19193]}, "properties": {"RODZAJ_TYLKO_A": 60.0, "Rodzaj punktu": "", "Nazwa punktu": "sklep \"Dom Wina\"", "Adres": "ul. Łopuszańska 22 lokal nr  1.22 Centrum Handlowe \" Łopuszańska 22\""}}, {"type": "Feature", "_id": "AAKE1hAADAANDC6AAA", "geometry": {"type": "Point", "coordinates": [20.92079, 52.17456]}, "properties": {"RODZAJ_TYLKO_A": 60.0, "Rodzaj punktu": "", "Nazwa punktu": "stoisko sprzedaży detalicznej przy magazynie i hurtowni napojów alkoholowych", "Adres": "ul. Szyszkowa 43"}}, {"type": "Feature", "_id": "AAKE1hAADAANDDDAAS", "geometry": {"type": "Point", "coordinates": [20.95187, 52.31932]}, "properties": {"RODZAJ_TYLKO_A": 60.0, "Rodzaj punktu": "", "Nazwa punktu": "sklep rybny \"Rybna Strefa\"", "Adres": "Światowida róg Ćmielowskiej paw. nr 37 (na terenie Centrum Handlowo-Usługowego)"}}, {"type": "Feature", "_id": "AAKE1hAADAANDDNAAN", "geometry": {"type": "Point", "coordinates": [21.16539, 52.21356]}, "properties": {"RODZAJ_TYLKO_A": 60.0, "Rodzaj punktu": "sklep wielobranżowy", "Nazwa punktu": "Skład Win.eu", "Adres": "ul. M. Kajki 31"}}, {"type": "Feature", "_id": "AAKE1hAADAANDDPAAU", "geometry": {"type": "Point", "coordinates": [20.87533, 52.18614]}, "properties": {"RODZAJ_TYLKO_A": 60.0, "Rodzaj punktu": "sklep winiarski", "Nazwa punktu": "REPUBLIKA WINA", "Adres": "ul. Ochocka 1A"}}, {"type": "Feature", "_id": "AAKE1hAADAANDDVAAF", "geometry": {"type": "Point", "coordinates": [20.96166, 52.24097]}, "properties": {"RODZAJ_TYLKO_A": 60.0, "Rodzaj punktu": "", "Nazwa punktu": "stoisko spożywczo-monopolowe w sklepie", "Adres": "ul. Syreny 34"}}, {"type": "Feature", "_id": "AAKE1hAADAANDDVAAJ", "geometry": {"type": "Point", "coordinates": [21.10677, 52.22786]}, "properties": {"RODZAJ_TYLKO_A": 60.0, "Rodzaj punktu": "sklep ogólnospożywczy", "Nazwa punktu": "", "Adres": "ul. Szkoły Orląt 4 lokal nr  11/19"}}, {"type": "Feature", "_id": "AAKE1hAADAANDDbAAX", "geometry": {"type": "Point", "coordinates": [21.04995, 52.19721]}, "properties": {"RODZAJ_TYLKO_A": 60.0, "Rodzaj punktu": "", "Nazwa punktu": "sklep monopolowy", "Adres": "al. W. Witosa 31 lokal nr  2a na terenie C.H.PANORAMA"}}, {"type": "Feature", "_id": "AAKE1hAADAANDDfAAM", "geometry": {"type": "Point", "coordinates": [20.8899, 52.2316]}, "properties": {"RODZAJ_TYLKO_A": 60.0, "Rodzaj punktu": "sklep ogólnospożywczy", "Nazwa punktu": "Beef&Pork", "Adres": "ul. Batalionów Chłopskich 87 lokal nr  U4"}}, {"type": "Feature", "_id": "AAKE1hAADAANDDpAAA", "geometry": {"type": "Point", "coordinates": [20.95041, 52.19392]}, "properties": {"RODZAJ_TYLKO_A": 60.0, "Rodzaj punktu": "", "Nazwa punktu": "punkt sprzedaży detalicznej z magazynem Box Gift", "Adres": "ul. Łopuszańska 24G lokal nr  109"}}, {"type": "Feature", "_id": "AAKE1hAADAANDDpAAX", "geometry": {"type": "Point", "coordinates": [21.01004, 52.30766]}, "properties": {"RODZAJ_TYLKO_A": 60.0, "Rodzaj punktu": "", "Nazwa punktu": "wydzielone stoisko z alkoholem w magazynie", "Adres": "ul. Marywilska 34D budynek D-1"}}, {"type": "Feature", "_id": "AAKE1hAADAANDDuAAR", "geometry": {"type": "Point", "coordinates": [21.06464, 52.27207]}, "properties": {"RODZAJ_TYLKO_A": 60.0, "Rodzaj punktu": "sklep monopolowy", "Nazwa punktu": "", "Adres": "ul. Rajgrodzka 20"}}, {"type": "Feature", "_id": "AAKE1hAADAANDD4AAV", "geometry": {"type": "Point", "coordinates": [21.04733, 52.19487]}, "properties": {"RODZAJ_TYLKO_A": 60.0, "Rodzaj punktu": "", "Nazwa punktu": "stoisko alkoholowe \"Beethovena\" ", "Adres": "J. P. Dziekońskiego 1 lok. 105 (poziom 1)"}}, {"type": "Feature", "_id": "AAKE1hAADAANDD7AAR", "geometry": {"type": "Point", "coordinates": [21.0307, 52.31298]}, "properties": {"RODZAJ_TYLKO_A": 60.0, "Rodzaj punktu": "", "Nazwa punktu": "FIORI sklep z alkoholem", "Adres": "ul. Białołęcka 196"}}, {"type": "Feature", "_id": "AAKE1hAADAANDEDAAR", "geometry": {"type": "Point", "coordinates": [20.9829, 52.32597]}, "properties": {"RODZAJ_TYLKO_A": 60.0, "Rodzaj punktu": "sklep spożywczo-monopolowy", "Nazwa punktu": "\"Wine & Sweets\"", "Adres": "ul. Kołacińska 35"}}, {"type": "Feature", "_id": "AAKE1hAADAANDEFAAP", "geometry": {"type": "Point", "coordinates": [20.96772, 52.19127]}, "properties": {"RODZAJ_TYLKO_A": 60.0, "Rodzaj punktu": "sklep wielobranżowy", "Nazwa punktu": "\"MINI MAX\"", "Adres": "ul. Lechicka 15 lokal nr  U1 i U2"}}, {"type": "Feature", "_id": "AAKE1hAADAANDEJAAQ", "geometry": {"type": "Point", "coordinates": [21.1843, 52.24085]}, "properties": {"RODZAJ_TYLKO_A": 60.0, "Rodzaj punktu": "sklep cukierniczy", "Nazwa punktu": "", "Adres": "ul. Podleśna 7"}}, {"type": "Feature", "_id": "AAKE1hAADAANDEZAAG", "geometry": {"type": "Point", "coordinates": [20.99086, 52.12608]}, "properties": {"RODZAJ_TYLKO_A": 60.0, "Rodzaj punktu": "sklep winiarski", "Nazwa punktu": "\"WINOBRANIE\"", "Adres": "ul. Baletowa 115B"}}, {"type": "Feature", "_id": "AAKE1hAADAANDEbAAI", "geometry": {"type": "Point", "coordinates": [21.02261, 52.18382]}, "properties": {"RODZAJ_TYLKO_A": 60.0, "Rodzaj punktu": "", "Nazwa punktu": "stoisko sprzedaży detalicznej w magazynie napojów alkoholowych ", "Adres": "ul. Domaniewska 10"}}, {"type": "Feature", "_id": "AAKE1hAADAANDEfAAA", "geometry": {"type": "Point", "coordinates": [20.9361, 52.27031]}, "properties": {"RODZAJ_TYLKO_A": 60.0, "Rodzaj punktu": "sklep cukierniczy", "Nazwa punktu": "KULI", "Adres": "ul. J. Kochanowskiego 51A"}}, {"type": "Feature", "_id": "AAKE1hAADAANDEfAAX", "geometry": {"type": "Point", "coordinates": [20.97818, 52.19954]}, "properties": {"RODZAJ_TYLKO_A": 60.0, "Rodzaj punktu": "", "Nazwa punktu": "sklep Wina Hiszpańskie Bodegas Santa Rufina", "Adres": "ul. K. Bohdanowicza 3 lokal nr  U2"}}, {"type": "Feature", "_id": "AAKE1hAADAANDEhAAF", "geometry": {"type": "Point", "coordinates": [20.95148, 52.18569]}, "properties": {"RODZAJ_TYLKO_A": 60.0, "Rodzaj punktu": "", "Nazwa punktu": "stiosko sprzedaży detalicznej napojów alkoholowych ", "Adres": "ul. Krakowiaków 4 lokal nr  9"}}, {"type": "Feature", "_id": "AAKE1hAADAANDEjAAB", "geometry": {"type": "Point", "coordinates": [21.09649, 52.26199]}, "properties": {"RODZAJ_TYLKO_A": 60.0, "Rodzaj punktu": "", "Nazwa punktu": "wydzielone stoisko w części magazynu napojów alkoholowych", "Adres": "ul. Łubinowa 4 magazyn nr 17"}}, {"type": "Feature", "_id": "AAKE1hAADAANDEkAAO", "geometry": {"type": "Point", "coordinates": [21.15733, 52.2135]}, "properties": {"RODZAJ_TYLKO_A": 60.0, "Rodzaj punktu": "", "Nazwa punktu": "\"RYNEK WINA\" SKLEP Z WINAMI", "Adres": "ul. Mrówcza 243 lokal nr  42 i 43"}}, {"type": "Feature", "_id": "AAKE1hAADAANDEnAAC", "geometry": {"type": "Point", "coordinates": [21.02615, 52.2239]}, "properties": {"RODZAJ_TYLKO_A": 60.0, "Rodzaj punktu": "", "Nazwa punktu": "Punkt sprzedaży napojów alkoholowych w Desa Fine Wine", "Adres": "ul. Piękna 1A"}}, {"type": "Feature", "_id": "AAKE1hAADAANDEsAAW", "geometry": {"type": "Point", "coordinates": [21.15541, 52.21897]}, "properties": {"RODZAJ_TYLKO_A": 60.0, "Rodzaj punktu": "", "Nazwa punktu": "stoisko z winem mszalnym w sklepie z artykułami liturgicznymi i dewocjonaliami", "Adres": "ul. V Poprzeczna 1"}}, {"type": "Feature", "_id": "AAKE1hAADAANDEtAAC", "geometry": {"type": "Point", "coordinates": [21.16911, 52.15987]}, "properties": {"RODZAJ_TYLKO_A": 60.0, "Rodzaj punktu": "", "Nazwa punktu": "Sklep przyfabryczny - MIKROGORZELNIA", "Adres": "ul. Wał Miedzeszyński 131B"}}, {"type": "Feature", "_id": "AAKE1hAADAANDE3AAK", "geometry": {"type": "Point", "coordinates": [20.96695, 52.3324]}, "properties": {"RODZAJ_TYLKO_A": 60.0, "Rodzaj punktu": "sklep spożywczo-monopolowy", "Nazwa punktu": "DEKANTER.PL", "Adres": "ul. Czarodzieja 2 lokal nr  1"}}, {"type": "Feature", "_id": "AAKE1hAADAANDE4AAU", "geometry": {"type": "Point", "coordinates": [21.09247, 52.22386]}, "properties": {"RODZAJ_TYLKO_A": 60.0, "Rodzaj punktu": "sklep spożywczy", "Nazwa punktu": "\"Organic Farma Zdrowia\"", "Adres": "ul. gen. A. E. Fieldorfa \"Nila\" 10A lokal nr  206"}}, {"type": "Feature", "_id": "AAKE1hAADAANDE9AAH", "geometry": {"type": "Point", "coordinates": [21.16083, 52.24102]}, "properties": {"RODZAJ_TYLKO_A": 60.0, "Rodzaj punktu": "", "Nazwa punktu": "Supermarket Drogeryjny  Rossmann", "Adres": "ul. Korkowa 165"}}, {"type": "Feature", "_id": "AAKE1hAADAANDFCAAG", "geometry": {"type": "Point", "coordinates": [21.02615, 52.2239]}, "properties": {"RODZAJ_TYLKO_A": 60.0, "Rodzaj punktu": "", "Nazwa punktu": "punkt sprzedaży napojów alkoholowych w Domu Aukcyjnym \"DESA UNICUM S.A\"", "Adres": "ul. Piękna 1A"}}, {"type": "Feature", "_id": "AAKE1hAADAANDFIAAF", "geometry": {"type": "Point", "coordinates": [21.07265, 52.28288]}, "properties": {"RODZAJ_TYLKO_A": 60.0, "Rodzaj punktu": "", "Nazwa punktu": "wydzielone stoisko w magazynie", "Adres": "ul. Tużycka 2"}}, {"type": "Feature", "_id": "AAKE1hAADAANDFIAAb", "geometry": {"type": "Point", "coordinates": [21.15618, 52.21484]}, "properties": {"RODZAJ_TYLKO_A": 60.0, "Rodzaj punktu": "", "Nazwa punktu": "sklep Rossmann nr 1877", "Adres": "ul. Widoczna 17 lokal nr  2"}}, {"type": "Feature", "_id": "AAKE1hAADAANDFJAAb", "geometry": {"type": "Point", "coordinates": [21.00044, 52.15728]}, "properties": {"RODZAJ_TYLKO_A": 60.0, "Rodzaj punktu": "", "Nazwa punktu": "sklep \"dobrewina.pl\"", "Adres": "ul. Wyczółki 46"}}, {"type": "Feature", "_id": "AAKE1hAADAANDFKAAE", "geometry": {"type": "Point", "coordinates": [20.9334, 52.19753]}, "properties": {"RODZAJ_TYLKO_A": 60.0, "Rodzaj punktu": "", "Nazwa punktu": "Punkt sprzedaży napojów alkoholowych Silverbird ", "Adres": "ul. Zagadki 21"}}, {"type": "Feature", "_id": "AAKE1hAADAANDFLAAR", "geometry": {"type": "Point", "coordinates": [20.97949, 52.18943]}, "properties": {"RODZAJ_TYLKO_A": 60.0, "Rodzaj punktu": "sklep ogólnospożywczy", "Nazwa punktu": "\"Minuta 8\"", "Adres": "ul. Żwirki i Wigury 17"}}, {"type": "Feature", "_id": "AAKE1hAADAANDFYAAX", "geometry": {"type": "Point", "coordinates": [21.11477, 52.23594]}, "properties": {"RODZAJ_TYLKO_A": 60.0, "Rodzaj punktu": "", "Nazwa punktu": "wydzielone stoisko winiarskie w restauracji \"Zielone Krzesła\"", "Adres": "ul. Jubilerska 10"}}, {"type": "Feature", "_id": "AAKE1hAADAANDFbAAW", "geometry": {"type": "Point", "coordinates": [21.01227, 52.22142]}, "properties": {"RODZAJ_TYLKO_A": 60.0, "Rodzaj punktu": "", "Nazwa punktu": "stoisko detaliczne w restauracji \"Nirvana Eatery\"", "Adres": "ul. Lwowska 9 lokal nr  1D i 1E"}}, {"type": "Feature", "_id": "AAKE1hAADAANDFbAAZ", "geometry": {"type": "Point", "coordinates": [20.95121, 52.19193]}, "properties": {"RODZAJ_TYLKO_A": 60.0, "Rodzaj punktu": "", "Nazwa punktu": "Drogeria Rossmann ", "Adres": "ul. Łopuszańska 22 lokal nr  H 19 Centrum Handlowe \"Łopuszańska 22\""}}, {"type": "Feature", "_id": "AAKE1hAADAANDFeAAR", "geometry": {"type": "Point", "coordinates": [20.93275, 52.25506]}, "properties": {"RODZAJ_TYLKO_A": 60.0, "Rodzaj punktu": "", "Nazwa punktu": "SKLEP Z WINEM \"CELLIER\"", "Adres": "ul. Obrońców Tobruku 29 lokal nr  173"}}, {"type": "Feature", "_id": "AAKE1hAADAANDFeAAZ", "geometry": {"type": "Point", "coordinates": [21.0957, 52.24246]}, "properties": {"RODZAJ_TYLKO_A": 60.0, "Rodzaj punktu": "sklep winiarski", "Nazwa punktu": "", "Adres": "ul. Omulewska 27"}}, {"type": "Feature", "_id": "AAKE1hAADAANDLVAAM", "geometry": {"type": "Point", "coordinates": [20.85614, 52.2002]}, "properties": {"RODZAJ_TYLKO_A": 60.0, "Rodzaj punktu": "sklep monopolowy", "Nazwa punktu": "\"Sklep z whisky\"", "Adres": "ul. Królowej Bony 46 /wejście do sklepu od ul. Henryka Brodatego/"}}, {"type": "Feature", "_id": "AAKE1hAADAANDLYAAA", "geometry": {"type": "Point", "coordinates": [20.98873, 52.30678]}, "properties": {"RODZAJ_TYLKO_A": 60.0, "Rodzaj punktu": "", "Nazwa punktu": "wydzielone stoisko ze sprzedażą napojów alkoholowych w klubie tenisowym MTC", "Adres": "ul. Morelowa 8"}}, {"type": "Feature", "_id": "AAKE1hAADAANDLdAAP", "geometry": {"type": "Point", "coordinates": [21.00305, 52.32382]}, "properties": {"RODZAJ_TYLKO_A": 60.0, "Rodzaj punktu": "", "Nazwa punktu": "sklep spożywczo-piekarniczy", "Adres": "ul. Smugowa 30B"}}, {"type": "Feature", "_id": "AAKE1hAADAANDUiAAN", "geometry": {"type": "Point", "coordinates": [21.17976, 52.24526]}, "properties": {"RODZAJ_TYLKO_A": 60.0, "Rodzaj punktu": "", "Nazwa punktu": "Sklep z winami \"La Casa del Primitivo\"", "Adres": "ul. Wspólna 2F lokal nr  1U"}}, {"type": "Feature", "_id": "AAKE1hAADAANDUkAAP", "geometry": {"type": "Point", "coordinates": [21.1597, 52.1656]}, "properties": {"RODZAJ_TYLKO_A": 60.0, "Rodzaj punktu": "", "Nazwa punktu": "Sklep artykułów spożywczych PREZENTOWE.PL  ", "Adres": "Wał Miedzeszyński 177k"}}, {"type": "Feature", "_id": "AAKE1hAADAANHyrAAM", "geometry": {"type": "Point", "coordinates": [21.12268, 52.26864]}, "properties": {"RODZAJ_TYLKO_A": 60.0, "Rodzaj punktu": "", "Nazwa punktu": "Sklep SLODKIE sp. z o.o.", "Adres": "ul. Chełmżyńska 180H"}}, {"type": "Feature", "_id": "AAKE1hAADAANHytAAB", "geometry": {"type": "Point", "coordinates": [21.09501, 52.23455]}, "properties": {"RODZAJ_TYLKO_A": 60.0, "Rodzaj punktu": "sklep wielobranżowy", "Nazwa punktu": "na stacji paliw ", "Adres": "ul. Filomatów 6 (wejście od ul. Ostrobramskiej)"}}, {"type": "Feature", "_id": "AAKE1hAADAANHytAAX", "geometry": {"type": "Point", "coordinates": [20.97557, 52.27307]}, "properties": {"RODZAJ_TYLKO_A": 60.0, "Rodzaj punktu": "", "Nazwa punktu": "stoisko sprzedaży napojów alkoholowych, ul. Gdańska 2 lok. 128 B,01-633 Warszawa", "Adres": "ul. Gdańska 2 lokal nr  128 B (wejście od ul. Bieniewickiej)"}}, {"type": "Feature", "_id": "AAKE1hAADAANHyuAAD", "geometry": {"type": "Point", "coordinates": [21.10321, 52.18055]}, "properties": {"RODZAJ_TYLKO_A": 60.0, "Rodzaj punktu": "", "Nazwa punktu": "sklep branżowy z napojami alkoholowymi", "Adres": "ul. Glebowa 18F"}}], "type": "FeatureCollection"}